listing_url,price,town,bedrooms,bathrooms,area,floor,tenure,property_type,listing_id,address_from_url,postal_code,onemap_full_address,onemap_road_name,latitude,longitude,nearest_mrt,nearest_exit,nearest_mrt_distance_m,nearest_clinic_name,nearest_clinic_distance_m,nearest_park_name,nearest_park_distance_m,nearest_community_club_name,nearest_community_club_distance_m
https://www.propertyguru.com.sg/listing/hdb-for-sale-903-tampines-avenue-4-60183063,"S$ 880,000",Clementi,3,2.0,"1,432 sqft",High floor,,HDB,60183063,903 Tampines Avenue 4,520903.0,903 TAMPINES AVENUE 4 TAMPINES PALMSVILLE SINGAPORE 520903,TAMPINES AVENUE 4,1.35097636296861,103.93976105184,TAMPINES MRT STATION,Exit F,481.04329390003824,kml_1015,249.2,SUN PLAZA PK,765.1,Tampines Central CC,278.8
https://www.propertyguru.com.sg/listing/hdb-for-sale-32-bedok-south-avenue-2-500051307,"S$ 799,999",Bedok,3,2.0,"1,270 sqft",15th floor,,HDB,500051307,32 Bedok South Avenue 2,460032.0,32 BEDOK SOUTH AVENUE 2 SINGAPORE 460032,BEDOK SOUTH AVENUE 2,1.32262578075749,103.937815786523,BEDOK MRT STATION,Exit B,923.4278223535548,kml_720,357.5,SENNETT AVE LINEAR PK,382.8,Bedok CC,266.1
https://www.propertyguru.com.sg/listing/hdb-for-sale-32-bedok-south-avenue-2-500051307,"S$ 799,999",Bedok,3,2.0,"1,270 sqft",15th floor,,HDB,500051307,32 Bedok South Avenue 2,460032.0,32 BEDOK SOUTH AVENUE 2 SINGAPORE 460032,BEDOK SOUTH AVENUE 2,1.32262578075749,103.937815786523,BEDOK MRT STATION,Exit B,923.4278223535548,kml_235,357.5,SENNETT AVE LINEAR PK,382.8,Bedok CC,266.1
https://www.propertyguru.com.sg/listing/hdb-for-sale-163-bishan-street-13-500073723,"S$ 960,000",Ang Mo Kio,4,2.0,"1,302 sqft",High floor,,HDB,500073723,163 Bishan Street 13,570163.0,163 BISHAN STREET 13 SINGAPORE 570163,BISHAN STREET 13,1.34802295169562,103.856274981004,BISHAN MRT STATION,Exit D,754.6057676556495,kml_1096,318.6,KALLANG LINEAR PARK,139.8,Bishan CC,662.4
https://www.propertyguru.com.sg/listing/hdb-for-sale-163-bishan-street-13-500073723,"S$ 960,000",Ang Mo Kio,4,2.0,"1,302 sqft",High floor,,HDB,500073723,163 Bishan Street 13,570163.0,163 BISHAN STREET 13 SINGAPORE 570163,BISHAN STREET 13,1.34802295169562,103.856274981004,BISHAN MRT STATION,Exit D,754.6057676556495,kml_491,318.6,KALLANG LINEAR PARK,139.8,Bishan CC,662.4
https://www.propertyguru.com.sg/listing/hdb-for-sale-224-jurong-east-street-21-500068835,"S$ 528,000",Bukit Batok,3,2.0,979 sqft,,,HDB,500068835,224 Jurong East Street 21,600224.0,224 JURONG EAST STREET 21 SINGAPORE 600224,JURONG EAST STREET 21,1.34171403139747,103.736733166148,CHINESE GARDEN MRT STATION,Exit C,371.6581594584206,kml_329,163.1,JLG: CG MRT TOL LINKWAY,481.5,Yuhua CC,196.1
https://www.propertyguru.com.sg/listing/hdb-for-sale-302-clementi-avenue-4-60181859,"S$ 578,000",Clementi,3,2.0,990 sqft,High floor,,HDB,60181859,302 Clementi Avenue 4,120302.0,302 CLEMENTI AVENUE 4 CLEMENTI MEADOWS SINGAPORE 120302,CLEMENTI AVENUE 4,1.32173863747461,103.764910229993,CLEMENTI MRT STATION,Exit B,697.8090868724696,kml_501,235.2,SUNSET WAY PG,472.1,Clementi CC,484.6
https://www.propertyguru.com.sg/listing/hdb-for-sale-94-dawson-road-500041954,"S$ 1,400,000",Bukit Merah,3,2.0,947 sqft,,,HDB,500041954,94 Dawson Road,141094.0,94 DAWSON ROAD SKYPARC @ DAWSON SINGAPORE 141094,DAWSON ROAD,1.29627483410181,103.811206437575,QUEENSTOWN MRT STATION,Exit B,585.5568609738189,kml_1036,192.7,CAMP ROAD INTERIM PARK,999.6,Leng Kee CC,803.0
https://www.propertyguru.com.sg/listing/hdb-for-sale-94-dawson-road-500041954,"S$ 1,400,000",Bukit Merah,3,2.0,947 sqft,,,HDB,500041954,94 Dawson Road,141094.0,94 DAWSON ROAD SKYPARC @ DAWSON SINGAPORE 141094,DAWSON ROAD,1.29627483410181,103.811206437575,QUEENSTOWN MRT STATION,Exit B,585.5568609738189,kml_299,192.7,CAMP ROAD INTERIM PARK,999.6,Leng Kee CC,803.0
https://www.propertyguru.com.sg/listing/hdb-for-sale-181-jelebu-road-500026081,"S$ 795,000",Bukit Panjang,3,2.0,"1,012 sqft",,,HDB,500026081,181 Jelebu Road,670181.0,181 JELEBU ROAD SINGAPORE 670181,JELEBU ROAD,1.37925788735519,103.762997101416,BUKIT PANJANG MRT STATION,Exit A,120.17553341995088,kml_840,93.0,RAIL CORRIDOR,291.5,Senja-Cashew CC,317.1
https://www.propertyguru.com.sg/listing/hdb-for-sale-18-bedok-south-road-500059721,"S$ 450,000",Bedok,2,1.0,786 sqft,High Floor,,HDB,500059721,18 Bedok South Road,460018.0,18 BEDOK SOUTH ROAD SINGAPORE 460018,BEDOK SOUTH ROAD,1.32062504871279,103.934734222428,BEDOK MRT STATION,Exit B,693.2984452022401,kml_20,0.0,SENNETT AVE LINEAR PK,252.0,Bedok CC,426.3
https://www.propertyguru.com.sg/listing/hdb-for-sale-226-jurong-east-street-21-500037503,"S$ 680,000",Bukit Batok,3,2.0,"1,292 sqft",,,HDB,500037503,226 Jurong East Street 21,600226.0,226 JURONG EAST STREET 21 SINGAPORE 600226,JURONG EAST STREET 21,1.34140471346947,103.735843456176,CHINESE GARDEN MRT STATION,Exit C,272.9770168512088,kml_329,223.4,JLG: CG MRT TOL LINKWAY,389.2,Yuhua CC,208.7
https://www.propertyguru.com.sg/listing/hdb-for-sale-706-yishun-avenue-5-60226252,"S$ 528,888",Clementi,3,2.0,"1,001 sqft",Mid Floor,,HDB,60226252,706 Yishun Avenue 5,760706.0,706 YISHUN AVENUE 5 CHONG PANG GREEN SINGAPORE 760706,YISHUN AVENUE 5,1.42886692085513,103.828909001953,YISHUN MRT STATION,Exit A,655.6790065079119,kml_115,155.1,PLATINA RD PG,323.1,Chong Pang CC,220.3
https://www.propertyguru.com.sg/listing/hdb-for-sale-116a-jalan-tenteram-500087239,"S$ 918,000",Clementi,3,2.0,"1,001 sqft",high floor,,HDB,500087239,116A Jalan Tenteram,321116.0,116A JALAN TENTERAM TENTERAM PEAK SINGAPORE 321116,JALAN TENTERAM,1.3270531250321,103.860558381575,BOON KENG MRT STATION,Exit A,779.4834946782352,kml_1042,61.4,MAR THOMA ROAD PARK,134.6,Whampoa CC,479.5
https://www.propertyguru.com.sg/listing/hdb-for-sale-512-bedok-north-avenue-2-60216167,"S$ 520,000",Bedok,3,2.0,990 sqft,,,HDB,60216167,512 Bedok North Avenue 2,460512.0,512 BEDOK NORTH AVENUE 2 KAKI BUKIT GREEN SINGAPORE 460512,BEDOK NORTH AVENUE 2,1.33336715518929,103.929177675999,BEDOK RESERVOIR MRT STATION,Exit A,529.0157750769325,kml_473,187.4,BEDOK TOWN PK,263.4,Kaki Bukit CC (U/C),259.5
https://www.propertyguru.com.sg/listing/hdb-for-sale-470-sembawang-drive-500093801,"S$ 538,000",Clementi,3,2.0,969 sqft,High Floor,,HDB,500093801,470 Sembawang Drive,750470.0,470 SEMBAWANG DRIVE SINGAPORE 750470,SEMBAWANG DRIVE,1.45157616201366,103.81515743452,SEMBAWANG MRT STATION,Exit C,577.9319237316435,kml_1111,251.9,PARK AT SEMBAWANG ALLEY,493.1,Canberra CC,867.4
https://www.propertyguru.com.sg/listing/hdb-for-sale-470-sembawang-drive-500093801,"S$ 538,000",Clementi,3,2.0,969 sqft,High Floor,,HDB,500093801,470 Sembawang Drive,750470.0,470 SEMBAWANG DRIVE SINGAPORE 750470,SEMBAWANG DRIVE,1.45157616201366,103.81515743452,SEMBAWANG MRT STATION,Exit C,577.9319237316435,kml_553,251.9,PARK AT SEMBAWANG ALLEY,493.1,Canberra CC,867.4
https://www.propertyguru.com.sg/listing/hdb-for-sale-464b-clementi-avenue-1-500071716,"S$ 1,280,000",Clementi,3,2.0,"1,023 sqft",High Floor,,HDB,500071716,464B Clementi Avenue 1,122464.0,464B CLEMENTI AVENUE 1 CLEMENTI PEAKS SINGAPORE 122464,CLEMENTI AVENUE 1,1.31013743458055,103.767972774309,CLEMENTI MRT STATION,Exit C,511.2364975666532,kml_599,85.3,TAMAN MAS MERAH PLAYGROUND,359.5,West Coast CC,899.1
https://www.propertyguru.com.sg/listing/hdb-for-sale-211-jurong-east-street-21-60217138,"S$ 400,000",Bukit Batok,2,2.0,721 sqft,,,HDB,60217138,211 Jurong East Street 21,600211.0,211 JURONG EAST STREET 21 SINGAPORE 600211,JURONG EAST STREET 21,1.33866911059386,103.740292528065,JURONG EAST MRT STATION,Exit A,545.3063926683598,kml_228,242.3,CHINESE GARDENS,824.1,Yuhua CC,386.9
https://www.propertyguru.com.sg/listing/hdb-for-sale-14-dover-close-east-500040733,"S$ 938,000",Bukit Merah,3,2.0,"1,281 sqft",high floor,,HDB,500040733,14 Dover Close East,130014.0,14 DOVER CLOSE EAST DOVER HEIGHTS SINGAPORE 130014,DOVER CLOSE EAST,1.30556381153272,103.785595231093,BUONA VISTA MRT STATION,Exit A,573.4444652560566,kml_1133,229.7,ONE-NORTH PARK,246.4,Dover CC,423.6
https://www.propertyguru.com.sg/listing/hdb-for-sale-588d-ang-mo-kio-street-52-500066200,"S$ 1,180,000",Ang Mo Kio,3,2.0,980 sqft,,,HDB,500066200,588D Ang Mo Kio Street 52,564588.0,588D ANG MO KIO STREET 52 PARK CENTRAL @ AMK SINGAPORE 564588,ANG MO KIO STREET 52,1.37175400663025,103.8538833087,ANG MO KIO MRT STATION,Exit D,496.867357391587,kml_466,97.1,ANG MO KIO TOWN GARDEN EAST,263.6,Cheng San CC (Pending U/C),480.0
https://www.propertyguru.com.sg/listing/hdb-for-sale-588d-ang-mo-kio-street-52-500066200,"S$ 1,180,000",Ang Mo Kio,3,2.0,980 sqft,,,HDB,500066200,588D Ang Mo Kio Street 52,564588.0,588D ANG MO KIO STREET 52 PARK CENTRAL @ AMK SINGAPORE 564588,ANG MO KIO STREET 52,1.37175400663025,103.8538833087,ANG MO KIO MRT STATION,Exit D,496.867357391587,kml_1162,97.1,ANG MO KIO TOWN GARDEN EAST,263.6,Cheng San CC (Pending U/C),480.0
https://www.propertyguru.com.sg/listing/hdb-for-sale-489-admiralty-link-60208421,"S$ 599,999",Clementi,3,2.0,"1,033 sqft",High floor,,HDB,60208421,489 Admiralty Link,750489.0,489 ADMIRALTY LINK SEMBAWANG GREEN SINGAPORE 750489,ADMIRALTY LINK,1.45495119192133,103.816819778829,SEMBAWANG MRT STATION,Exit C,722.4061571420384,kml_376,182.8,PARK AT SEMBAWANG ALLEY,703.1,Canberra CC,1134.6
https://www.propertyguru.com.sg/listing/hdb-for-sale-312-bukit-batok-street-32-500019442,"S$ 430,000",Bukit Batok,2,2.0,732 sqft,,,HDB,500019442,312 Bukit Batok Street 32,650312.0,312 BUKIT BATOK STREET 32 SINGAPORE 650312,BUKIT BATOK STREET 32,1.35987875096146,103.74733565667,BUKIT GOMBAK MRT STATION,Exit C,496.4313001714229,kml_613,380.0,BUKIT BATOK TOWN PARK,696.0,Hong Kah North CC,252.9
https://www.propertyguru.com.sg/listing/hdb-for-sale-312-bukit-batok-street-32-500019442,"S$ 430,000",Bukit Batok,2,2.0,732 sqft,,,HDB,500019442,312 Bukit Batok Street 32,650312.0,312 BUKIT BATOK STREET 32 SINGAPORE 650312,BUKIT BATOK STREET 32,1.35987875096146,103.74733565667,BUKIT GOMBAK MRT STATION,Exit C,496.4313001714229,kml_65,380.0,BUKIT BATOK TOWN PARK,696.0,Hong Kah North CC,252.9
https://www.propertyguru.com.sg/listing/hdb-for-sale-67-marine-drive-60216010,"S$ 477,888",Clementi,2,1.0,700 sqft,Mid floor,,HDB,60216010,67 Marine Drive,440067.0,67 MARINE DRIVE MARINE DRIVE GARDENS SINGAPORE 440067,MARINE DRIVE,1.30445743674353,103.909602924396,MARINE PARADE MRT STATION,Exit 5,137.0815688850418,kml_685,345.8,MARINE PARADE RD PK,104.7,Marine Parade CC (Pending U/C),41.5
https://www.propertyguru.com.sg/listing/hdb-for-sale-67-marine-drive-60216010,"S$ 477,888",Clementi,2,1.0,700 sqft,Mid floor,,HDB,60216010,67 Marine Drive,440067.0,67 MARINE DRIVE MARINE DRIVE GARDENS SINGAPORE 440067,MARINE DRIVE,1.30445743674353,103.909602924396,MARINE PARADE MRT STATION,Exit 5,137.0815688850418,kml_765,345.8,MARINE PARADE RD PK,104.7,Marine Parade CC (Pending U/C),41.5
https://www.propertyguru.com.sg/listing/hdb-for-sale-94-dawson-road-500033976,"S$ 1,299,999",Clementi,3,2.0,893 sqft,High Floor,,HDB,500033976,94 Dawson Road,141094.0,94 DAWSON ROAD SKYPARC @ DAWSON SINGAPORE 141094,DAWSON ROAD,1.29627483410181,103.811206437575,QUEENSTOWN MRT STATION,Exit B,585.5568609738189,kml_1036,192.7,CAMP ROAD INTERIM PARK,999.6,Leng Kee CC,803.0
https://www.propertyguru.com.sg/listing/hdb-for-sale-94-dawson-road-500033976,"S$ 1,299,999",Clementi,3,2.0,893 sqft,High Floor,,HDB,500033976,94 Dawson Road,141094.0,94 DAWSON ROAD SKYPARC @ DAWSON SINGAPORE 141094,DAWSON ROAD,1.29627483410181,103.811206437575,QUEENSTOWN MRT STATION,Exit B,585.5568609738189,kml_299,192.7,CAMP ROAD INTERIM PARK,999.6,Leng Kee CC,803.0
https://www.propertyguru.com.sg/listing/hdb-for-sale-613-bukit-panjang-ring-road-500093078,"S$ 565,000",Bukit Panjang,3,2.0,969 sqft,,,HDB,500093078,613 Bukit Panjang Ring Road,670613.0,613 BUKIT PANJANG RING ROAD SINGAPORE 670613,BUKIT PANJANG RING ROAD,1.38436672930183,103.762046231912,SENJA LRT STATION,Exit A,168.70936230111673,kml_1057,166.9,RAIL CORRIDOR,633.1,Senja-Cashew CC,423.2
https://www.propertyguru.com.sg/listing/hdb-for-sale-114-bedok-reservoir-road-60047435,"S$ 999,999",Bedok,4,3.0,"1,614 sqft",High floor,,HDB,60047435,114 Bedok Reservoir Road,470114.0,114 BEDOK RESERVOIR ROAD EUNOS VISTA SINGAPORE 470114,BEDOK RESERVOIR ROAD,1.33056065989658,103.909838947885,KAKI BUKIT MRT STATION,Exit B,491.02180654148674,kml_1092,84.1,JALAN SINGA PARK,299.1,Eunos CC (Pending U/C),630.1
https://www.propertyguru.com.sg/listing/hdb-for-sale-49-strathmore-avenue-500040522,"S$ 1,100,000",Bukit Merah,3,2.0,969 sqft,High floor,,HDB,500040522,49 Strathmore Avenue,140049.0,49 STRATHMORE AVENUE FORFAR HEIGHTS SINGAPORE 140049,STRATHMORE AVENUE,1.29402164281341,103.808212801667,QUEENSTOWN MRT STATION,Exit B,214.12561683204171,kml_1036,224.0,RAIL CORRIDOR,990.7,Leng Kee CC,837.2
https://www.propertyguru.com.sg/listing/hdb-for-sale-49-strathmore-avenue-500040522,"S$ 1,100,000",Bukit Merah,3,2.0,969 sqft,High floor,,HDB,500040522,49 Strathmore Avenue,140049.0,49 STRATHMORE AVENUE FORFAR HEIGHTS SINGAPORE 140049,STRATHMORE AVENUE,1.29402164281341,103.808212801667,QUEENSTOWN MRT STATION,Exit B,214.12561683204171,kml_299,224.0,RAIL CORRIDOR,990.7,Leng Kee CC,837.2
https://www.propertyguru.com.sg/listing/hdb-for-sale-93-paya-lebar-way-60219411,"S$ 300,000",Clementi,2,1.0,624 sqft,,,HDB,60219411,93 Paya Lebar Way,370093.0,93 PAYA LEBAR WAY SINGAPORE 370093,PAYA LEBAR WAY,1.32273476922747,103.888103196257,MACPHERSON MRT STATION,Exit D,270.8916323279677,kml_505,201.2,GEYLANG EAST PK,76.8,MacPherson CC,412.7
https://www.propertyguru.com.sg/listing/for-sale-pinery-residences-60241655,"S$ 3,526,000",Bedok,5,3.0,"1,475 sqft",,,HDB,60241655,For Sale Pinery Residences,,,,,,,,,,,,,,
https://www.propertyguru.com.sg/listing/hdb-for-sale-467-ang-mo-kio-avenue-10-500052274,"S$ 533,000",Ang Mo Kio,3,2.0,990 sqft,High Floor,,HDB,500052274,467 Ang Mo Kio Avenue 10,560467.0,467 ANG MO KIO AVENUE 10 TECK GHEE HORIZON SINGAPORE 560467,ANG MO KIO AVENUE 10,1.36539106633914,103.856803588706,ANG MO KIO MRT STATION,Exit A,887.4043231318948,kml_10,211.2,HAUS LINEAR PARK,365.3,Teck Ghee CC,443.9
https://www.propertyguru.com.sg/listing/hdb-for-sale-467-ang-mo-kio-avenue-10-500052274,"S$ 533,000",Ang Mo Kio,3,2.0,990 sqft,High Floor,,HDB,500052274,467 Ang Mo Kio Avenue 10,560467.0,467 ANG MO KIO AVENUE 10 TECK GHEE HORIZON SINGAPORE 560467,ANG MO KIO AVENUE 10,1.36539106633914,103.856803588706,ANG MO KIO MRT STATION,Exit A,887.4043231318948,kml_494,211.2,HAUS LINEAR PARK,365.3,Teck Ghee CC,443.9
https://www.propertyguru.com.sg/listing/hdb-for-sale-81-commonwealth-close-23663635,"S$ 350,000",Bukit Batok,2,2.0,614 sqft,High floor,,HDB,23663635,81 Commonwealth Close,140081.0,81 COMMONWEALTH CLOSE COMMONWEALTH HEIGHTS SINGAPORE 140081,COMMONWEALTH CLOSE,1.303787443937,103.800385265974,COMMONWEALTH MRT STATION,Exit C,260.9077209184994,kml_995,310.4,RAIL CORRIDOR,661.6,Queenstown CC,522.9
https://www.propertyguru.com.sg/listing/hdb-for-sale-287d-jurong-east-street-21-500024496,"S$ 1,068,000",Clementi,3,2.0,"1,561 sqft",high floor,,HDB,500024496,287D Jurong East Street 21,604287.0,287D JURONG EAST STREET 21 SINGAPORE 604287,JURONG EAST STREET 21,1.33786938805889,103.744114430465,JURONG EAST MRT STATION,Exit A,504.6036690107623,kml_184,318.7,JAPANESE GARDENS,1227.5,Yuhua CC,818.2
https://www.propertyguru.com.sg/listing/hdb-for-sale-235-bukit-batok-east-avenue-5-500081350,"S$ 425,000",Bukit Batok,2,2.0,743 sqft,,,HDB,500081350,235 Bukit Batok East Avenue 5,650235.0,235 BUKIT BATOK EAST AVENUE 5 GOMBAK GARDENS SINGAPORE 650235,BUKIT BATOK EAST AVENUE 5,1.34848352110457,103.756300449103,BUKIT BATOK MRT STATION,Exit A,713.4090147071495,kml_525,119.7,BUKIT BATOK TOWN PARK,486.4,Bukit Batok East CC (U/C),218.2
https://www.propertyguru.com.sg/listing/hdb-for-sale-235-bukit-batok-east-avenue-5-500081350,"S$ 425,000",Bukit Batok,2,2.0,743 sqft,,,HDB,500081350,235 Bukit Batok East Avenue 5,650235.0,235 BUKIT BATOK EAST AVENUE 5 GOMBAK GARDENS SINGAPORE 650235,BUKIT BATOK EAST AVENUE 5,1.34848352110457,103.756300449103,BUKIT BATOK MRT STATION,Exit A,713.4090147071495,kml_323,119.7,BUKIT BATOK TOWN PARK,486.4,Bukit Batok East CC (U/C),218.2
https://www.propertyguru.com.sg/listing/hdb-for-sale-410-commonwealth-avenue-west-60229284,"S$ 638,888",Clementi,3,2.0,"1,044 sqft",High floor,,HDB,60229284,410 Commonwealth Avenue West,120410.0,410 COMMONWEALTH AVENUE WEST SINGAPORE 120410,COMMONWEALTH AVENUE WEST,1.31144123230238,103.769691998438,CLEMENTI MRT STATION,Exit C,532.5394985984177,kml_599,215.7,TAMAN MAS MERAH PLAYGROUND,595.4,Clementi CC,833.2
https://www.propertyguru.com.sg/listing/hdb-for-sale-643-ang-mo-kio-avenue-5-500030514,"S$ 440,000",Ang Mo Kio,2,2.0,807 sqft,Mid Floor,,HDB,500030514,643 Ang Mo Kio Avenue 5,560643.0,643 ANG MO KIO AVENUE 5 ANG MO KIO 61 SINGAPORE 560643,ANG MO KIO AVENUE 5,1.3775062692911,103.840557182306,MAYFLOWER MRT STATION,Exit 3,560.1250586442817,kml_941,227.7,ANG MO KIO TOWN GARDEN WEST,164.2,Yio Chu Kang CC (Pending U/C),454.0
https://www.propertyguru.com.sg/listing/hdb-for-sale-96-bedok-north-avenue-4-500043548,"S$ 725,000",Bedok,3,2.0,"1,324 sqft",High Floor,,HDB,500043548,96 Bedok North Avenue 4,460096.0,96 BEDOK NORTH AVENUE 4 SINGAPORE 460096,BEDOK NORTH AVENUE 4,1.33326478123569,103.940334868697,BEDOK RESERVOIR MRT STATION,Exit B,844.570377461659,kml_569,169.8,JLN PARI DEDAP PG,357.4,Fengshan CC,308.2
https://www.propertyguru.com.sg/listing/hdb-for-sale-96-bedok-north-avenue-4-500043548,"S$ 725,000",Bedok,3,2.0,"1,324 sqft",High Floor,,HDB,500043548,96 Bedok North Avenue 4,460096.0,96 BEDOK NORTH AVENUE 4 SINGAPORE 460096,BEDOK NORTH AVENUE 4,1.33326478123569,103.940334868697,BEDOK RESERVOIR MRT STATION,Exit B,844.570377461659,kml_1114,169.8,JLN PARI DEDAP PG,357.4,Fengshan CC,308.2
https://www.propertyguru.com.sg/listing/hdb-for-sale-342-clementi-avenue-5-500066493,"S$ 798,000",Clementi,3,2.0,"1,302 sqft",10th floor,,HDB,500066493,342 Clementi Avenue 5,120342.0,342 CLEMENTI AVENUE 5 SINGAPORE 120342,CLEMENTI AVENUE 5,1.31836321447687,103.769846484274,CLEMENTI MRT STATION,Exit B,609.9364153497796,kml_221,112.6,CLEMENTI CRESCENT PG,644.4,Clementi CC,194.9
https://www.propertyguru.com.sg/listing/hdb-for-sale-24-hougang-avenue-3-500066281,"S$ 400,000",Clementi,2,2.0,721 sqft,,,HDB,500066281,24 Hougang Avenue 3,530024.0,24 HOUGANG AVENUE 3 SINGAPORE 530024,HOUGANG AVENUE 3,1.36551226123746,103.892085472745,HOUGANG MRT STATION,Exit A,523.7399083859167,kml_414,308.5,REALTY PARK,144.6,Hougang CC,102.6
https://www.propertyguru.com.sg/listing/hdb-for-sale-24-hougang-avenue-3-500066281,"S$ 400,000",Clementi,2,2.0,721 sqft,,,HDB,500066281,24 Hougang Avenue 3,530024.0,24 HOUGANG AVENUE 3 SINGAPORE 530024,HOUGANG AVENUE 3,1.36551226123746,103.892085472745,HOUGANG MRT STATION,Exit A,523.7399083859167,kml_934,308.5,REALTY PARK,144.6,Hougang CC,102.6
https://www.propertyguru.com.sg/listing/hdb-for-sale-43-bedok-south-road-500043474,"S$ 528,000",Bedok,3,1.0,904 sqft,,,HDB,500043474,43 Bedok South Road,460043.0,43 BEDOK SOUTH ROAD BEDOK SOUTH PARKVIEW SINGAPORE 460043,BEDOK SOUTH ROAD,1.32154128092741,103.94159328974,TANAH MERAH MRT STATION,Exit A,753.401895989205,kml_183,242.9,LUCKY GARDENS PG,209.9,Siglap CC,194.3
https://www.propertyguru.com.sg/listing/hdb-for-sale-425-canberra-road-25470637,"S$ 600,000",Choa Chu Kang,3,2.0,"1,184 sqft",High Floor,,HDB,25470637,425 Canberra Road,750425.0,425 CANBERRA ROAD SINGAPORE 750425,CANBERRA ROAD,1.4543786727951,103.818678117563,SEMBAWANG MRT STATION,Exit C,592.9416771794479,kml_1055,122.2,PARK AT SEMBAWANG ALLEY,600.8,Canberra CC,1036.0
https://www.propertyguru.com.sg/listing/hdb-for-sale-629-hougang-avenue-8-500083206,"S$ 430,000",Ang Mo Kio,2,2.0,689 sqft,High Floor,,HDB,500083206,629 Hougang Avenue 8,530629.0,629 HOUGANG AVENUE 8 SINGAPORE 530629,HOUGANG AVENUE 8,1.36995412441592,103.881217930961,KOVAN MRT STATION,Exit B,1151.836325751878,kml_795,164.1,PK VILLAS TERRACE PG,130.5,Ci Yuan CC,604.0
https://www.propertyguru.com.sg/listing/hdb-for-sale-93-whampoa-drive-500053006,"S$ 399,000",Clementi,3,1.0,700 sqft,High Floor,,HDB,500053006,93 Whampoa Drive,320093.0,93 WHAMPOA DRIVE WHAMPOA VIEW SINGAPORE 320093,WHAMPOA DRIVE,1.32227606663002,103.854799917943,BOON KENG MRT STATION,Exit A,783.1486077193131,kml_1175,115.1,PEK KIO PARK,839.8,Whampoa CC,356.5
https://www.propertyguru.com.sg/listing/hdb-for-sale-93-whampoa-drive-500053006,"S$ 399,000",Clementi,3,1.0,700 sqft,High Floor,,HDB,500053006,93 Whampoa Drive,320093.0,93 WHAMPOA DRIVE WHAMPOA VIEW SINGAPORE 320093,WHAMPOA DRIVE,1.32227606663002,103.854799917943,BOON KENG MRT STATION,Exit A,783.1486077193131,kml_1170,115.1,PEK KIO PARK,839.8,Whampoa CC,356.5
https://www.propertyguru.com.sg/listing/hdb-for-sale-337-ang-mo-kio-avenue-1-500006443,"S$ 578,888",Ang Mo Kio,3,2.0,979 sqft,High Floor,,HDB,500006443,337 Ang Mo Kio Avenue 1,560337.0,337 ANG MO KIO AVENUE 1 TECK GHEE VIEW SINGAPORE 560337,ANG MO KIO AVENUE 1,1.36319555672393,103.851616001112,ANG MO KIO MRT STATION,Exit A,721.5939930673986,kml_552,106.6,BISHAN-ANG MO KIO PARK (RIVER PLAINS),220.8,Teck Ghee CC,214.0
https://www.propertyguru.com.sg/listing/hdb-for-sale-663b-punggol-drive-500042674,"S$ 638,888",Clementi,3,2.0,969 sqft,HIGH FLOOR,,HDB,500042674,663B Punggol Drive,822663.0,663B PUNGGOL DRIVE WATERWAY SUNBEAM SINGAPORE 822663,PUNGGOL DRIVE,1.4007712264439,103.917348684837,KADALOOR LRT STATION,Exit A,151.19148120497096,kml_417,205.4,CONEY ISLAND PARK,790.8,Punggol 21 CC,902.5
https://www.propertyguru.com.sg/listing/hdb-for-sale-383-bukit-batok-west-avenue-5-500086733,"S$ 599,000",Bukit Batok,3,2.0,969 sqft,High Floor,,HDB,500086733,383 Bukit Batok West Avenue 5,650383.0,383 BUKIT BATOK WEST AVENUE 5 SINGAPORE 650383,BUKIT BATOK WEST AVENUE 5,1.36232315228541,103.752217152725,BUKIT GOMBAK MRT STATION,Exit D,337.69661640661354,kml_504,154.2,BUKIT BATOK TOWN PARK,148.8,Hong Kah North CC,474.0
https://www.propertyguru.com.sg/listing/hdb-for-sale-112-mcnair-road-60214421,"S$ 1,090,000",Clementi,2,2.0,"1,399 sqft",high floor,,HDB,60214421,112 Mcnair Road,320112.0,112 MCNAIR ROAD MCNAIR SPRING SINGAPORE 320112,MCNAIR ROAD,1.32101349547791,103.858982397017,BOON KENG MRT STATION,Exit A,297.7198182666372,kml_33,292.8,BENG WAN RD PG,724.0,Whampoa CC,458.8
https://www.propertyguru.com.sg/listing/hdb-for-sale-112-mcnair-road-60214421,"S$ 1,090,000",Clementi,2,2.0,"1,399 sqft",high floor,,HDB,60214421,112 Mcnair Road,320112.0,112 MCNAIR ROAD MCNAIR SPRING SINGAPORE 320112,MCNAIR ROAD,1.32101349547791,103.858982397017,BOON KENG MRT STATION,Exit A,297.7198182666372,kml_1034,292.8,BENG WAN RD PG,724.0,Whampoa CC,458.8
https://www.propertyguru.com.sg/listing/hdb-for-sale-112-mcnair-road-60214421,"S$ 1,090,000",Clementi,2,2.0,"1,399 sqft",high floor,,HDB,60214421,112 Mcnair Road,320112.0,112 MCNAIR ROAD MCNAIR SPRING SINGAPORE 320112,MCNAIR ROAD,1.32101349547791,103.858982397017,BOON KENG MRT STATION,Exit A,297.7198182666372,kml_1097,292.8,BENG WAN RD PG,724.0,Whampoa CC,458.8
https://www.propertyguru.com.sg/listing/hdb-for-sale-112-mcnair-road-60214421,"S$ 1,090,000",Clementi,2,2.0,"1,399 sqft",high floor,,HDB,60214421,112 Mcnair Road,320112.0,112 MCNAIR ROAD MCNAIR SPRING SINGAPORE 320112,MCNAIR ROAD,1.32101349547791,103.858982397017,BOON KENG MRT STATION,Exit A,297.7198182666372,kml_433,292.8,BENG WAN RD PG,724.0,Whampoa CC,458.8
https://www.propertyguru.com.sg/listing/hdb-for-sale-112-mcnair-road-60214421,"S$ 1,090,000",Clementi,2,2.0,"1,399 sqft",high floor,,HDB,60214421,112 Mcnair Road,320112.0,112 MCNAIR ROAD MCNAIR SPRING SINGAPORE 320112,MCNAIR ROAD,1.32101349547791,103.858982397017,BOON KENG MRT STATION,Exit A,297.7198182666372,kml_1098,292.8,BENG WAN RD PG,724.0,Whampoa CC,458.8
https://www.propertyguru.com.sg/listing/hdb-for-sale-39a-bendemeer-road-60157568,"S$ 918,000",Clementi,3,2.0,990 sqft,,,HDB,60157568,39A Bendemeer Road,331039.0,39A BENDEMEER ROAD THE RIVER VISTA @ KALLANG SINGAPORE 331039,BENDEMEER ROAD,1.3201793852072,103.866365809133,BOON KENG MRT STATION,Exit B,507.0240939300394,kml_462,275.3,BENG WAN RD PG,330.1,Kallang CC,516.2
https://www.propertyguru.com.sg/listing/hdb-for-sale-353b-admiralty-drive-500082610,"S$ 628,000",Clementi,3,2.0,"1,001 sqft",High Floor,,HDB,500082610,353B Admiralty Drive,752353.0,353B ADMIRALTY DRIVE SINGAPORE 752353,ADMIRALTY DRIVE,1.45016506715726,103.819306849533,SEMBAWANG MRT STATION,Exit C,122.85938476981184,kml_871,94.1,PARK AT SEMBAWANG ALLEY,134.8,Canberra CC,566.6
https://www.propertyguru.com.sg/listing/hdb-for-sale-333-ang-mo-kio-avenue-1-500040551,"S$ 429,000",Ang Mo Kio,2,2.0,721 sqft,High Floor,,HDB,500040551,333 Ang Mo Kio Avenue 1,560333.0,333 ANG MO KIO AVENUE 1 TECK GHEE VIEW SINGAPORE 560333,ANG MO KIO AVENUE 1,1.3613425564061,103.851698621454,ANG MO KIO MRT STATION,Exit A,924.081550785833,kml_552,141.5,BISHAN-ANG MO KIO PARK (RIVER PLAINS),67.6,Teck Ghee CC,281.2
https://www.propertyguru.com.sg/listing/hdb-for-sale-184-jelebu-road-60217835,"S$ 898,000",Bukit Panjang,3,2.0,"1,206 sqft",,,HDB,60217835,184 Jelebu Road,670184.0,184 JELEBU ROAD SINGAPORE 670184,JELEBU ROAD,1.37971095812868,103.762440084954,BUKIT PANJANG MRT STATION,Exit A,97.03199537490642,kml_840,148.5,RAIL CORRIDOR,258.9,Senja-Cashew CC,322.5
https://www.propertyguru.com.sg/listing/hdb-for-sale-5-ghim-moh-road-500065407,"S$ 428,000",Bukit Merah,2,1.0,700 sqft,High Floor,,HDB,500065407,5 Ghim Moh Road,270005.0,5 GHIM MOH ROAD GHIM MOH GREEN SINGAPORE 270005,GHIM MOH ROAD,1.31269310627626,103.788308828224,BUONA VISTA MRT STATION,Exit A,644.1866526167995,kml_1154,287.6,RAIL CORRIDOR,101.9,Ulu Pandan CC (U/C),125.7
https://www.propertyguru.com.sg/listing/hdb-for-sale-5-ghim-moh-road-500065407,"S$ 428,000",Bukit Merah,2,1.0,700 sqft,High Floor,,HDB,500065407,5 Ghim Moh Road,270005.0,5 GHIM MOH ROAD GHIM MOH GREEN SINGAPORE 270005,GHIM MOH ROAD,1.31269310627626,103.788308828224,BUONA VISTA MRT STATION,Exit A,644.1866526167995,kml_541,287.6,RAIL CORRIDOR,101.9,Ulu Pandan CC (U/C),125.7
https://www.propertyguru.com.sg/listing/hdb-for-sale-106-jalan-dusun-60043440,"S$ 668,000",Clementi,3,2.0,"1,001 sqft",,,HDB,60043440,106 Jalan Dusun,320106.0,106 JALAN DUSUN AH HOOD GARDENS SINGAPORE 320106,JALAN DUSUN,1.32855771177594,103.844796773619,TOA PAYOH MRT STATION,Exit B,519.7681158514606,kml_643,253.2,TOA PAYOH TOWN PK,253.4,Toa Payoh West CC,754.7
https://www.propertyguru.com.sg/listing/for-sale-pinery-residences-500085377,"S$ 2,722,000",Bedok,4,2.0,"1,141 sqft",,,HDB,500085377,For Sale Pinery Residences,,,,,,,,,,,,,,
https://www.propertyguru.com.sg/listing/for-sale-pinery-residences-500078443,"S$ 1,660,000",Bedok,2,2.0,700 sqft,,,HDB,500078443,For Sale Pinery Residences,,,,,,,,,,,,,,
https://www.propertyguru.com.sg/listing/hdb-for-sale-241-bishan-street-22-24240078,"S$ 878,000",Ang Mo Kio,3,2.0,"1,248 sqft",2nd floor,,HDB,24240078,241 Bishan Street 22,570241.0,241 BISHAN STREET 22 SINGAPORE 570241,BISHAN STREET 22,1.36082968527378,103.84547335577,ANG MO KIO MRT STATION,Exit C,1049.684947554954,kml_857,226.1,BISHAN-ANG MO KIO PARK (RIVER PLAINS),7.2,Thomson CC (Till 1Q 2022),247.9
https://www.propertyguru.com.sg/listing/hdb-for-sale-241-bishan-street-22-24240078,"S$ 878,000",Ang Mo Kio,3,2.0,"1,248 sqft",2nd floor,,HDB,24240078,241 Bishan Street 22,570241.0,241 BISHAN STREET 22 SINGAPORE 570241,BISHAN STREET 22,1.36082968527378,103.84547335577,ANG MO KIO MRT STATION,Exit C,1049.684947554954,kml_1122,226.1,BISHAN-ANG MO KIO PARK (RIVER PLAINS),7.2,Thomson CC (Till 1Q 2022),247.9
https://www.propertyguru.com.sg/listing/hdb-for-sale-241-bishan-street-22-24240078,"S$ 878,000",Ang Mo Kio,3,2.0,"1,248 sqft",2nd floor,,HDB,24240078,241 Bishan Street 22,570241.0,241 BISHAN STREET 22 SINGAPORE 570241,BISHAN STREET 22,1.36082968527378,103.84547335577,ANG MO KIO MRT STATION,Exit C,1049.684947554954,kml_77,226.1,BISHAN-ANG MO KIO PARK (RIVER PLAINS),7.2,Thomson CC (Till 1Q 2022),247.9
https://www.propertyguru.com.sg/listing/hdb-for-sale-241-bishan-street-22-24240078,"S$ 878,000",Ang Mo Kio,3,2.0,"1,248 sqft",2nd floor,,HDB,24240078,241 Bishan Street 22,570241.0,241 BISHAN STREET 22 SINGAPORE 570241,BISHAN STREET 22,1.36082968527378,103.84547335577,ANG MO KIO MRT STATION,Exit C,1049.684947554954,kml_30,226.1,BISHAN-ANG MO KIO PARK (RIVER PLAINS),7.2,Thomson CC (Till 1Q 2022),247.9
https://www.propertyguru.com.sg/listing/hdb-for-sale-231-bishan-street-23-500092143,"S$ 1,320,000",Ang Mo Kio,3,3.0,"1,571 sqft",,,HDB,500092143,231 Bishan Street 23,570231.0,231 BISHAN STREET 23 SINGAPORE 570231,BISHAN STREET 23,1.35729122854977,103.845845690555,BISHAN MRT STATION,Exit B,744.7026649138712,kml_1122,217.5,BISHAN-ANG MO KIO PARK (RIVER PLAINS),280.2,Thomson CC (Till 1Q 2022),147.9
https://www.propertyguru.com.sg/listing/hdb-for-sale-231-bishan-street-23-500092143,"S$ 1,320,000",Ang Mo Kio,3,3.0,"1,571 sqft",,,HDB,500092143,231 Bishan Street 23,570231.0,231 BISHAN STREET 23 SINGAPORE 570231,BISHAN STREET 23,1.35729122854977,103.845845690555,BISHAN MRT STATION,Exit B,744.7026649138712,kml_77,217.5,BISHAN-ANG MO KIO PARK (RIVER PLAINS),280.2,Thomson CC (Till 1Q 2022),147.9
https://www.propertyguru.com.sg/listing/hdb-for-sale-231-bishan-street-23-500092143,"S$ 1,320,000",Ang Mo Kio,3,3.0,"1,571 sqft",,,HDB,500092143,231 Bishan Street 23,570231.0,231 BISHAN STREET 23 SINGAPORE 570231,BISHAN STREET 23,1.35729122854977,103.845845690555,BISHAN MRT STATION,Exit B,744.7026649138712,kml_30,217.5,BISHAN-ANG MO KIO PARK (RIVER PLAINS),280.2,Thomson CC (Till 1Q 2022),147.9
https://www.propertyguru.com.sg/listing/hdb-for-sale-231-bishan-street-23-500092143,"S$ 1,320,000",Ang Mo Kio,3,3.0,"1,571 sqft",,,HDB,500092143,231 Bishan Street 23,570231.0,231 BISHAN STREET 23 SINGAPORE 570231,BISHAN STREET 23,1.35729122854977,103.845845690555,BISHAN MRT STATION,Exit B,744.7026649138712,kml_857,217.5,BISHAN-ANG MO KIO PARK (RIVER PLAINS),280.2,Thomson CC (Till 1Q 2022),147.9
https://www.propertyguru.com.sg/listing/hdb-for-sale-94-dawson-road-500042103,"S$ 1,399,999",Clementi,3,2.0,947 sqft,,,HDB,500042103,94 Dawson Road,141094.0,94 DAWSON ROAD SKYPARC @ DAWSON SINGAPORE 141094,DAWSON ROAD,1.29627483410181,103.811206437575,QUEENSTOWN MRT STATION,Exit B,585.5568609738189,kml_1036,192.7,CAMP ROAD INTERIM PARK,999.6,Leng Kee CC,803.0
https://www.propertyguru.com.sg/listing/hdb-for-sale-94-dawson-road-500042103,"S$ 1,399,999",Clementi,3,2.0,947 sqft,,,HDB,500042103,94 Dawson Road,141094.0,94 DAWSON ROAD SKYPARC @ DAWSON SINGAPORE 141094,DAWSON ROAD,1.29627483410181,103.811206437575,QUEENSTOWN MRT STATION,Exit B,585.5568609738189,kml_299,192.7,CAMP ROAD INTERIM PARK,999.6,Leng Kee CC,803.0
https://www.propertyguru.com.sg/listing/hdb-for-sale-747c-bedok-reservoir-crescent-500043579,"S$ 937,999",Bedok,3,2.0,936 sqft,,,HDB,500043579,747C Bedok Reservoir Crescent,473747.0,747C BEDOK RESERVOIR CRESCENT BELVIA SINGAPORE 473747,BEDOK RESERVOIR CRESCENT,1.33679206446803,103.921982613627,BEDOK NORTH MRT STATION,Exit B,415.5003056724245,kml_222,101.4,BEDOK RESERVOIR PK,203.6,Kaki Bukit CC (U/C),659.7
https://www.propertyguru.com.sg/listing/hdb-for-sale-308-clementi-avenue-4-500071707,"S$ 455,000",Bukit Timah,2,2.0,721 sqft,,,HDB,500071707,308 Clementi Avenue 4,120308.0,308 CLEMENTI AVENUE 4 CLEMENTI MEADOWS SINGAPORE 120308,CLEMENTI AVENUE 4,1.32105185036523,103.766910446634,CLEMENTI MRT STATION,Exit B,649.7096727550919,kml_501,0.0,SUNSET WAY PG,532.8,Clementi CC,283.4
https://www.propertyguru.com.sg/listing/hdb-for-sale-104-whampoa-drive-60064357,"S$ 980,000",Bukit Panjang,2,,"1,281 sqft",High Floor,99-year Leasehold,HDB,60064357,104 Whampoa Drive,323104.0,104 WHAMPOA DRIVE WHAMPOA VIEW SINGAPORE 323104,WHAMPOA DRIVE,1.3207995912383,103.853327785421,FARRER PARK MRT STATION,Exit B,822.4295320934532,kml_538,148.2,PEK KIO PARK,609.1,Whampoa CC,587.7
https://www.propertyguru.com.sg/listing/hdb-for-sale-104-whampoa-drive-60064357,"S$ 980,000",Bukit Panjang,2,,"1,281 sqft",High Floor,99-year Leasehold,HDB,60064357,104 Whampoa Drive,323104.0,104 WHAMPOA DRIVE WHAMPOA VIEW SINGAPORE 323104,WHAMPOA DRIVE,1.3207995912383,103.853327785421,FARRER PARK MRT STATION,Exit B,822.4295320934532,kml_529,148.2,PEK KIO PARK,609.1,Whampoa CC,587.7
https://www.propertyguru.com.sg/listing/hdb-for-sale-504-ang-mo-kio-avenue-8-500080721,"S$ 488,888",Ang Mo Kio,2,2.0,731 sqft,High floor,,HDB,500080721,504 Ang Mo Kio Avenue 8,560504.0,504 ANG MO KIO AVENUE 8 CHENG SAN CREST SINGAPORE 560504,ANG MO KIO AVENUE 8,1.37482589458092,103.848956089557,ANG MO KIO MRT STATION,Exit D,558.1078533675839,kml_508,141.3,ANG MO KIO TOWN GARDEN EAST,289.7,Cheng San CC (Pending U/C),343.6
https://www.propertyguru.com.sg/listing/hdb-for-sale-93a-telok-blangah-street-31-500035944,"S$ 960,000",Bukit Merah,3,2.0,"1,001 sqft",,,HDB,500035944,93A Telok Blangah Street 31,101093.0,93A TELOK BLANGAH STREET 31 TELOK BLANGAH PARCVIEW SINGAPORE 101093,TELOK BLANGAH STREET 31,1.27532809461587,103.807323119129,TELOK BLANGAH MRT STATION,Exit A,586.0376991089628,kml_215,218.7,TELOK BLANGAH HILL PARK,290.6,Telok Blangah CC,80.2
https://www.propertyguru.com.sg/listing/hdb-for-sale-964-hougang-avenue-9-500038164,"S$ 788,000",Clementi,3,2.0,"1,302 sqft",,,HDB,500038164,964 Hougang Avenue 9,530964.0,964 HOUGANG AVENUE 9 SINGAPORE 530964,HOUGANG AVENUE 9,1.37715825014895,103.87752355745,TONGKANG LRT STATION,Exit A,1633.0673386761327,kml_214,269.2,LUXUS HILLS PARK,319.1,Hwi Yoh CC,564.1
https://www.propertyguru.com.sg/listing/hdb-for-sale-126-geylang-east-avenue-1-60093170,"S$ 790,000",Clementi,3,2.0,"1,163 sqft",,,HDB,60093170,126 Geylang East Avenue 1,381126.0,126 GEYLANG EAST AVENUE 1 GEYLANG EAST GROVE SINGAPORE 381126,GEYLANG EAST AVENUE 1,1.31755699491525,103.887130250228,PAYA LEBAR MRT STATION,Exit C,514.5785941976759,Geylang Polyclinic,214.2,GEYLANG EAST PK,431.6,MacPherson CC,724.0
https://www.propertyguru.com.sg/listing/hdb-for-sale-721-pasir-ris-street-72-60143013,"S$ 658,000",Clementi,3,2.0,"1,356 sqft",,,HDB,60143013,721 Pasir Ris Street 72,510721.0,721 PASIR RIS STREET 72 SINGAPORE 510721,PASIR RIS STREET 72,1.3814623557979,103.936332074831,PASIR RIS MRT STATION,Exit B,1713.3391700733448,kml_543,200.2,PASIR RIS PK,745.9,Pasir Ris Elias CC,761.6
https://www.propertyguru.com.sg/listing/hdb-for-sale-721-pasir-ris-street-72-60143013,"S$ 658,000",Clementi,3,2.0,"1,356 sqft",,,HDB,60143013,721 Pasir Ris Street 72,510721.0,721 PASIR RIS STREET 72 SINGAPORE 510721,PASIR RIS STREET 72,1.3814623557979,103.936332074831,PASIR RIS MRT STATION,Exit B,1713.3391700733448,kml_748,200.2,PASIR RIS PK,745.9,Pasir Ris Elias CC,761.6
https://www.propertyguru.com.sg/listing/hdb-for-sale-83a-circuit-road-500081351,"S$ 1,125,000",Clementi,3,2.0,"1,033 sqft",12th floor,,HDB,500081351,83A Circuit Road,371083.0,83A CIRCUIT ROAD MACPHERSON SPRING SINGAPORE 371083,CIRCUIT ROAD,1.32331350362685,103.88961029001,MACPHERSON MRT STATION,Exit D,240.81915294395696,kml_505,230.2,GEYLANG EAST PK,240.6,MacPherson CC,571.4
https://www.propertyguru.com.sg/listing/hdb-for-sale-243-bishan-street-22-500058722,"S$ 850,000",Ang Mo Kio,3,2.0,"1,130 sqft",,,HDB,500058722,243 Bishan Street 22,570243.0,243 BISHAN STREET 22 SINGAPORE 570243,BISHAN STREET 22,1.361084979743,103.844635646145,ANG MO KIO MRT STATION,Exit C,1066.3379331009107,kml_857,239.8,BISHAN-ANG MO KIO PARK (RIVER PLAINS),45.7,Thomson CC (Till 1Q 2022),293.2
https://www.propertyguru.com.sg/listing/hdb-for-sale-243-bishan-street-22-500058722,"S$ 850,000",Ang Mo Kio,3,2.0,"1,130 sqft",,,HDB,500058722,243 Bishan Street 22,570243.0,243 BISHAN STREET 22 SINGAPORE 570243,BISHAN STREET 22,1.361084979743,103.844635646145,ANG MO KIO MRT STATION,Exit C,1066.3379331009107,kml_1122,239.8,BISHAN-ANG MO KIO PARK (RIVER PLAINS),45.7,Thomson CC (Till 1Q 2022),293.2
https://www.propertyguru.com.sg/listing/hdb-for-sale-243-bishan-street-22-500058722,"S$ 850,000",Ang Mo Kio,3,2.0,"1,130 sqft",,,HDB,500058722,243 Bishan Street 22,570243.0,243 BISHAN STREET 22 SINGAPORE 570243,BISHAN STREET 22,1.361084979743,103.844635646145,ANG MO KIO MRT STATION,Exit C,1066.3379331009107,kml_77,239.8,BISHAN-ANG MO KIO PARK (RIVER PLAINS),45.7,Thomson CC (Till 1Q 2022),293.2
https://www.propertyguru.com.sg/listing/hdb-for-sale-243-bishan-street-22-500058722,"S$ 850,000",Ang Mo Kio,3,2.0,"1,130 sqft",,,HDB,500058722,243 Bishan Street 22,570243.0,243 BISHAN STREET 22 SINGAPORE 570243,BISHAN STREET 22,1.361084979743,103.844635646145,ANG MO KIO MRT STATION,Exit C,1066.3379331009107,kml_30,239.8,BISHAN-ANG MO KIO PARK (RIVER PLAINS),45.7,Thomson CC (Till 1Q 2022),293.2
https://www.propertyguru.com.sg/listing/hdb-for-sale-242-serangoon-avenue-3-500068805,"S$ 715,000",Clementi,3,2.0,904 sqft,,,HDB,500068805,242 Serangoon Avenue 3,550242.0,242 SERANGOON AVENUE 3 SINGAPORE 550242,SERANGOON AVENUE 3,1.35269591874852,103.869711017596,SERANGOON MRT STATION,Exit F,274.0528082617815,kml_486,132.1,COLCHESTER GROVE INTERIM OS,519.1,Braddell Heights CC (Pending U/C),140.4
https://www.propertyguru.com.sg/listing/hdb-for-sale-181-jelebu-road-500056179,"S$ 795,000",Bukit Panjang,3,2.0,"1,012 sqft",,,HDB,500056179,181 Jelebu Road,670181.0,181 JELEBU ROAD SINGAPORE 670181,JELEBU ROAD,1.37925788735519,103.762997101416,BUKIT PANJANG MRT STATION,Exit A,120.17553341995088,kml_840,93.0,RAIL CORRIDOR,291.5,Senja-Cashew CC,317.1
https://www.propertyguru.com.sg/listing/hdb-for-sale-95-havelock-road-500020498,"S$ 1,040,888",Bukit Merah,3,2.0,"1,270 sqft",,,HDB,500020498,95 Havelock Road,160095.0,95 HAVELOCK ROAD HAVELOCK HEIGHTS SINGAPORE 160095,HAVELOCK ROAD,1.28847543074122,103.832848165751,HAVELOCK MRT STATION,Exit 3,70.95549348136053,kml_528,448.8,GANGES AVE OS,242.9,Kim Seng CC,273.2
https://www.propertyguru.com.sg/listing/hdb-for-sale-95-havelock-road-500020498,"S$ 1,040,888",Bukit Merah,3,2.0,"1,270 sqft",,,HDB,500020498,95 Havelock Road,160095.0,95 HAVELOCK ROAD HAVELOCK HEIGHTS SINGAPORE 160095,HAVELOCK ROAD,1.28847543074122,103.832848165751,HAVELOCK MRT STATION,Exit 3,70.95549348136053,kml_1189,448.8,GANGES AVE OS,242.9,Kim Seng CC,273.2
https://www.propertyguru.com.sg/listing/hdb-for-sale-742-tampines-street-72-60167301,"S$ 630,000",Clementi,3,2.0,"1,076 sqft",,,HDB,60167301,742 Tampines Street 72,520742.0,742 TAMPINES STREET 72 TAMPINES GREEN VALE SINGAPORE 520742,TAMPINES STREET 72,1.35958874830961,103.933361011699,TAMPINES MRT STATION,Exit E,1113.9102596177074,kml_940,216.4,TAMPINES BOULEVARD PARK,886.3,Tampines Central CC,974.1
https://www.propertyguru.com.sg/listing/hdb-for-sale-26-bendemeer-road-500090451,"S$ 558,000",Ang Mo Kio,2,2.0,764 sqft,High floor,,HDB,500090451,26 Bendemeer Road,330026.0,26 BENDEMEER ROAD BENDEMEER VILLE SINGAPORE 330026,BENDEMEER ROAD,1.3183075369852,103.86292186863,BOON KENG MRT STATION,Exit B,153.13924685011602,kml_462,167.0,BENG WAN RD PG,579.2,Kallang CC,82.7
https://www.propertyguru.com.sg/listing/hdb-for-sale-60-teban-gardens-road-60188365,"S$ 580,000",Clementi,3,2.0,969 sqft,High floor,,HDB,60188365,60 Teban Gardens Road,600060.0,60 TEBAN GARDENS ROAD TEBAN GARDENS SINGAPORE 600060,TEBAN GARDENS ROAD,1.32275524437283,103.738658086826,JURONG EAST MRT STATION,Exit B,1173.2023236784837,kml_623,53.4,JLG: LAKESIDE GARDEN,833.1,Ayer Rajah CC,1011.9
https://www.propertyguru.com.sg/listing/hdb-for-sale-60-teban-gardens-road-60188365,"S$ 580,000",Clementi,3,2.0,969 sqft,High floor,,HDB,60188365,60 Teban Gardens Road,600060.0,60 TEBAN GARDENS ROAD TEBAN GARDENS SINGAPORE 600060,TEBAN GARDENS ROAD,1.32275524437283,103.738658086826,JURONG EAST MRT STATION,Exit B,1173.2023236784837,kml_1104,53.4,JLG: LAKESIDE GARDEN,833.1,Ayer Rajah CC,1011.9
https://www.propertyguru.com.sg/listing/hdb-for-sale-207a-punggol-place-60163166,"S$ 850,000",Clementi,3,2.0,"1,205 sqft",high floor,,HDB,60163166,207A Punggol Place,821207.0,207A PUNGGOL PLACE PUNGGOL SAILS SINGAPORE 821207,PUNGGOL PLACE,1.40028667892624,103.901012370624,PUNGGOL LRT STATION,Exit C,462.8733942959224,kml_827,214.2,PUNGGOL WATERWAY PK,939.1,Punggol West CC,756.9
https://www.propertyguru.com.sg/listing/hdb-for-sale-165-hougang-avenue-1-500022433,"S$ 639,999",Clementi,3,2.0,990 sqft,,Freehold,HDB,500022433,165 Hougang Avenue 1,530165.0,165 HOUGANG AVENUE 1 SINGAPORE 530165,HOUGANG AVENUE 1,1.3502542591897,103.887795306397,KOVAN MRT STATION,Exit C,1117.6107105042388,kml_644,145.0,PAYA LEBAR CRESCENT OS,472.2,Aljunied CC,524.5
https://www.propertyguru.com.sg/listing/hdb-for-sale-306-hougang-avenue-5-25596155,"S$ 730,000",Clementi,3,2.0,"1,442 sqft",,,HDB,25596155,306 Hougang Avenue 5,530306.0,306 HOUGANG AVENUE 5 SINGAPORE 530306,HOUGANG AVENUE 5,1.3671976368128,103.895496560443,HOUGANG MRT STATION,Exit A,476.5590152752665,kml_695,134.3,JLN NAUNG PG,379.0,Hougang CC,418.5
https://www.propertyguru.com.sg/listing/hdb-for-sale-530a-pasir-ris-drive-1-500071807,"S$ 838,000",Clementi,3,2.0,926 sqft,High Floor,,HDB,500071807,530A Pasir Ris Drive 1,511530.0,530A PASIR RIS DRIVE 1 PASIR RIS ONE SINGAPORE 511530,PASIR RIS DRIVE 1,1.37114053931458,103.949850548422,PASIR RIS MRT STATION,Exit A,197.7308716986488,kml_877,145.5,PASIR RIS TOWN PK,149.4,Pasir Ris East CC,1077.9
https://www.propertyguru.com.sg/listing/hdb-for-sale-530a-pasir-ris-drive-1-500071807,"S$ 838,000",Clementi,3,2.0,926 sqft,High Floor,,HDB,500071807,530A Pasir Ris Drive 1,511530.0,530A PASIR RIS DRIVE 1 PASIR RIS ONE SINGAPORE 511530,PASIR RIS DRIVE 1,1.37114053931458,103.949850548422,PASIR RIS MRT STATION,Exit A,197.7308716986488,kml_701,145.5,PASIR RIS TOWN PK,149.4,Pasir Ris East CC,1077.9
https://www.propertyguru.com.sg/listing/hdb-for-sale-82a-circuit-road-500036534,"S$ 870,000",Clementi,2,2.0,732 sqft,High Floor,,HDB,500036534,82A Circuit Road,371082.0,82A CIRCUIT ROAD MACPHERSON SPRING SINGAPORE 371082,CIRCUIT ROAD,1.32428910717838,103.889760526482,MACPHERSON MRT STATION,Exit C,143.85806701393034,kml_505,204.2,GEYLANG EAST PK,324.5,MacPherson CC,593.4
https://www.propertyguru.com.sg/listing/hdb-for-sale-429-clementi-avenue-3-500046834,"S$ 568,000",Clementi,3,2.0,979 sqft,,,HDB,500046834,429 Clementi Avenue 3,120429.0,429 CLEMENTI AVENUE 3 SINGAPORE 120429,CLEMENTI AVENUE 3,1.31291218870832,103.762860973019,CLEMENTI MRT STATION,Exit D,327.8965192180556,kml_180,123.3,WEST COAST PLACE PLAYGROUND,424.6,Clementi CC,879.2
https://www.propertyguru.com.sg/listing/hdb-for-sale-525c-costa-ris-500045022,"S$ 948,888",Clementi,3,2.0,"1,216 sqft",High Floor,,HDB,500045022,525C Costa Ris,513525.0,525C PASIR RIS STREET 51 COSTA RIS SINGAPORE 513525,PASIR RIS STREET 51,1.3699604913861,103.947452111279,PASIR RIS MRT STATION,Exit B,375.3879884934652,kml_729,60.5,TAMPINES ECO GREEN PK,365.5,Pasir Ris Elias CC,1087.9
https://www.propertyguru.com.sg/listing/hdb-for-sale-154-jalan-teck-whye-60231247,"S$ 700,000",Bukit Panjang,3,2.0,"1,302 sqft",,,HDB,60231247,154 Jalan Teck Whye,680154.0,154 JALAN TECK WHYE SINGAPORE 680154,JALAN TECK WHYE,1.37964487632189,103.757746962906,PHOENIX LRT STATION,Exit A,127.65448356967369,kml_564,215.0,RAIL CORRIDOR,276.0,Chua Chu Kang CC,671.4
https://www.propertyguru.com.sg/listing/hdb-for-sale-607-elias-road-60137554,"S$ 988,000",Clementi,3,2.0,"1,604 sqft",,,HDB,60137554,607 Elias Road,510607.0,607 ELIAS ROAD SINGAPORE 510607,ELIAS ROAD,1.37638608282285,103.942462589515,PASIR RIS MRT STATION,Exit B,837.8096656965934,kml_383,250.9,SG API API PK,266.1,Pasir Ris Elias CC,225.9
https://www.propertyguru.com.sg/listing/hdb-for-sale-607-elias-road-60137554,"S$ 988,000",Clementi,3,2.0,"1,604 sqft",,,HDB,60137554,607 Elias Road,510607.0,607 ELIAS ROAD SINGAPORE 510607,ELIAS ROAD,1.37638608282285,103.942462589515,PASIR RIS MRT STATION,Exit B,837.8096656965934,kml_1061,250.9,SG API API PK,266.1,Pasir Ris Elias CC,225.9
https://www.propertyguru.com.sg/listing/hdb-for-sale-607-elias-road-60137554,"S$ 988,000",Clementi,3,2.0,"1,604 sqft",,,HDB,60137554,607 Elias Road,510607.0,607 ELIAS ROAD SINGAPORE 510607,ELIAS ROAD,1.37638608282285,103.942462589515,PASIR RIS MRT STATION,Exit B,837.8096656965934,kml_432,250.9,SG API API PK,266.1,Pasir Ris Elias CC,225.9
https://www.propertyguru.com.sg/listing/hdb-for-sale-607-elias-road-60137554,"S$ 988,000",Clementi,3,2.0,"1,604 sqft",,,HDB,60137554,607 Elias Road,510607.0,607 ELIAS ROAD SINGAPORE 510607,ELIAS ROAD,1.37638608282285,103.942462589515,PASIR RIS MRT STATION,Exit B,837.8096656965934,kml_197,250.9,SG API API PK,266.1,Pasir Ris Elias CC,225.9
https://www.propertyguru.com.sg/listing/hdb-for-sale-211-choa-chu-kang-central-500054635,"S$ 590,000",Bukit Panjang,3,2.0,"1,130 sqft",High floor,,HDB,500054635,211 Choa Chu Kang Central,680211.0,211 CHOA CHU KANG CENTRAL SINGAPORE 680211,CHOA CHU KANG CENTRAL,1.38192105715299,103.74790119771,SOUTH VIEW LRT STATION,Exit A,358.70853262136114,kml_527,257.3,CHOA CHU KANG PK,275.0,Keat Hong CC,407.4
https://www.propertyguru.com.sg/listing/hdb-for-sale-402-admiralty-link-60183196,"S$ 580,000",Choa Chu Kang,3,2.0,"1,183 sqft",,,HDB,60183196,402 Admiralty Link,750402.0,402 ADMIRALTY LINK SINGAPORE 750402,ADMIRALTY LINK,1.45389053873224,103.815769086937,SEMBAWANG MRT STATION,Exit C,688.3033388410096,kml_1111,171.4,PARK AT SEMBAWANG ALLEY,642.4,Canberra CC,1061.5
https://www.propertyguru.com.sg/listing/hdb-for-sale-402-admiralty-link-60183196,"S$ 580,000",Choa Chu Kang,3,2.0,"1,183 sqft",,,HDB,60183196,402 Admiralty Link,750402.0,402 ADMIRALTY LINK SINGAPORE 750402,ADMIRALTY LINK,1.45389053873224,103.815769086937,SEMBAWANG MRT STATION,Exit C,688.3033388410096,kml_553,171.4,PARK AT SEMBAWANG ALLEY,642.4,Canberra CC,1061.5
https://www.propertyguru.com.sg/listing/hdb-for-sale-322-bukit-batok-street-33-60195820,"S$ 508,888",Bukit Batok,3,2.0,"1,001 sqft",High Floor,,HDB,60195820,322 Bukit Batok Street 33,650322.0,322 BUKIT BATOK STREET 33 SINGAPORE 650322,BUKIT BATOK STREET 33,1.36166738427595,103.747725025434,BUKIT GOMBAK MRT STATION,Exit C,530.6713315234299,kml_315,216.2,BUKIT BATOK TOWN PARK,649.7,Hong Kah North CC,346.9
https://www.propertyguru.com.sg/listing/hdb-for-sale-596a-ang-mo-kio-street-52-500012536,"S$ 1,010,000",Ang Mo Kio,3,2.0,"1,184 sqft",High Floor,,HDB,500012536,596A Ang Mo Kio Street 52,561596.0,596A ANG MO KIO STREET 52 CITY VIEW @ CHENG SAN SINGAPORE 561596,ANG MO KIO STREET 52,1.37243023974423,103.850949173949,ANG MO KIO MRT STATION,Exit D,309.6657464033773,kml_508,280.5,ANG MO KIO TOWN GARDEN EAST,71.3,Cheng San CC (Pending U/C),169.5
https://www.propertyguru.com.sg/listing/hdb-for-sale-969-hougang-street-91-500008837,"S$ 628,888",Clementi,3,2.0,"1,012 sqft",High Floor,,HDB,500008837,969 Hougang Street 91,530969.0,969 HOUGANG STREET 91 SINGAPORE 530969,HOUGANG STREET 91,1.37875948902978,103.879496357849,TONGKANG LRT STATION,Exit A,1363.5419104153766,kml_338,232.1,LUXUS HILLS PARK,401.9,Ci Yuan CC,549.9
https://www.propertyguru.com.sg/listing/hdb-for-sale-339a-sembawang-close-60225745,"S$ 650,000",Clementi,5,2.0,"1,227 sqft",,,HDB,60225745,339A Sembawang Close,751339.0,339A SEMBAWANG CLOSE SUN TRELLIS SINGAPORE 751339,SEMBAWANG CLOSE,1.44801536040364,103.81788087791,SEMBAWANG MRT STATION,Exit B,228.1544712139441,kml_449,181.5,PARK AT SEMBAWANG ALLEY,116.7,Canberra CC,373.3
https://www.propertyguru.com.sg/listing/hdb-for-sale-442-fajar-road-60096842,"S$ 673,000",Bukit Panjang,4,2.0,"1,270 sqft",High floor,,HDB,60096842,442 Fajar Road,670442.0,442 FAJAR ROAD SINGAPORE 670442,FAJAR ROAD,1.3822511534931,103.77123566611,FAJAR LRT STATION,Exit A,253.92924093176907,kml_447,155.9,ZHENGHUA NATURE PARK,328.3,Zhenghua CC (Pending U/C),504.7
https://www.propertyguru.com.sg/listing/hdb-for-sale-442-fajar-road-60096842,"S$ 673,000",Bukit Panjang,4,2.0,"1,270 sqft",High floor,,HDB,60096842,442 Fajar Road,670442.0,442 FAJAR ROAD SINGAPORE 670442,FAJAR ROAD,1.3822511534931,103.77123566611,FAJAR LRT STATION,Exit A,253.92924093176907,kml_943,155.9,ZHENGHUA NATURE PARK,328.3,Zhenghua CC (Pending U/C),504.7
https://www.propertyguru.com.sg/listing/hdb-for-sale-442-fajar-road-60096842,"S$ 673,000",Bukit Panjang,4,2.0,"1,270 sqft",High floor,,HDB,60096842,442 Fajar Road,670442.0,442 FAJAR ROAD SINGAPORE 670442,FAJAR ROAD,1.3822511534931,103.77123566611,FAJAR LRT STATION,Exit A,253.92924093176907,kml_104,155.9,ZHENGHUA NATURE PARK,328.3,Zhenghua CC (Pending U/C),504.7
https://www.propertyguru.com.sg/listing/hdb-for-sale-442-fajar-road-60096842,"S$ 673,000",Bukit Panjang,4,2.0,"1,270 sqft",High floor,,HDB,60096842,442 Fajar Road,670442.0,442 FAJAR ROAD SINGAPORE 670442,FAJAR ROAD,1.3822511534931,103.77123566611,FAJAR LRT STATION,Exit A,253.92924093176907,kml_313,155.9,ZHENGHUA NATURE PARK,328.3,Zhenghua CC (Pending U/C),504.7
https://www.propertyguru.com.sg/listing/hdb-for-sale-145-bishan-street-11-60222966,"S$ 680,000",Ang Mo Kio,3,2.0,904 sqft,High Floor,99-year leasehold,HDB,60222966,145 Bishan Street 11,570145.0,145 BISHAN STREET 11 BISHAN GREEN SINGAPORE 570145,BISHAN STREET 11,1.34488600912462,103.85428449567,BISHAN MRT STATION,Exit D,822.3880040962422,kml_1096,94.1,KALLANG LINEAR PARK,529.5,Bishan CC,661.9
https://www.propertyguru.com.sg/listing/hdb-for-sale-145-bishan-street-11-60222966,"S$ 680,000",Ang Mo Kio,3,2.0,904 sqft,High Floor,99-year leasehold,HDB,60222966,145 Bishan Street 11,570145.0,145 BISHAN STREET 11 BISHAN GREEN SINGAPORE 570145,BISHAN STREET 11,1.34488600912462,103.85428449567,BISHAN MRT STATION,Exit D,822.3880040962422,kml_491,94.1,KALLANG LINEAR PARK,529.5,Bishan CC,661.9
https://www.propertyguru.com.sg/listing/hdb-for-sale-104-potong-pasir-avenue-1-500069474,"S$ 618,000",Clementi,2,2.0,797 sqft,High Floor,,HDB,500069474,104 Potong Pasir Avenue 1,350104.0,104 POTONG PASIR AVENUE 1 SINGAPORE 350104,POTONG PASIR AVENUE 1,1.3343391689203,103.869158899303,POTONG PASIR MRT STATION,Exit A,172.3305719187287,kml_420,146.2,GREENWAY SOUTH,109.4,Potong Pasir CC,309.1
https://www.propertyguru.com.sg/listing/hdb-for-sale-365c-sembawang-crescent-500064272,"S$ 515,000",Clementi,2,2.0,731 sqft,Mid Floor,,HDB,500064272,365C Sembawang Crescent,753365.0,365C SEMBAWANG CRESCENT SUN BREEZE SINGAPORE 753365,SEMBAWANG CRESCENT,1.44339578695379,103.816986885504,SEMBAWANG MRT STATION,Exit B,673.7812795173659,kml_1166,134.3,LEGUNDI PK,568.4,Canberra CC,331.4
https://www.propertyguru.com.sg/listing/hdb-for-sale-91a-telok-blangah-street-31-60205366,"S$ 965,000",Bukit Merah,3,2.0,"1,001 sqft",,,HDB,60205366,91A Telok Blangah Street 31,101091.0,91A TELOK BLANGAH STREET 31 TELOK BLANGAH PARCVIEW SINGAPORE 101091,TELOK BLANGAH STREET 31,1.27666192078908,103.807127959576,TELOK BLANGAH MRT STATION,Exit A,728.1559290836464,kml_215,360.9,TELOK BLANGAH HILL PARK,144.0,Telok Blangah CC,215.6
https://www.propertyguru.com.sg/listing/hdb-for-sale-88-dawson-road-60099670,"S$ 950,000",Clementi,3,2.0,893 sqft,,,HDB,60099670,88 Dawson Road,142088.0,88 DAWSON ROAD SKYVILLE @ DAWSON SINGAPORE 142088,DAWSON ROAD,1.29579395038247,103.809264765809,QUEENSTOWN MRT STATION,Exit B,366.4526952896867,kml_1036,76.0,RAIL CORRIDOR,1152.6,Leng Kee CC,879.8
https://www.propertyguru.com.sg/listing/hdb-for-sale-88-dawson-road-60099670,"S$ 950,000",Clementi,3,2.0,893 sqft,,,HDB,60099670,88 Dawson Road,142088.0,88 DAWSON ROAD SKYVILLE @ DAWSON SINGAPORE 142088,DAWSON ROAD,1.29579395038247,103.809264765809,QUEENSTOWN MRT STATION,Exit B,366.4526952896867,kml_299,76.0,RAIL CORRIDOR,1152.6,Leng Kee CC,879.8
https://www.propertyguru.com.sg/listing/hdb-for-sale-690d-choa-chu-kang-crescent-60102601,"S$ 580,000",Bukit Batok,3,2.0,"1,184 sqft",MID FLOOR,,HDB,60102601,690D Choa Chu Kang Crescent,684690.0,690D CHOA CHU KANG CRESCENT SINGAPORE 684690,CHOA CHU KANG CRESCENT,1.40214978725236,103.752101604265,YEW TEE MRT STATION,Exit B,698.1291709283946,kml_1110,719.4,RAIL CORRIDOR,85.4,Yew Tee CC,1145.8
https://www.propertyguru.com.sg/listing/hdb-for-sale-690d-choa-chu-kang-crescent-60102601,"S$ 580,000",Bukit Batok,3,2.0,"1,184 sqft",MID FLOOR,,HDB,60102601,690D Choa Chu Kang Crescent,684690.0,690D CHOA CHU KANG CRESCENT SINGAPORE 684690,CHOA CHU KANG CRESCENT,1.40214978725236,103.752101604265,YEW TEE MRT STATION,Exit B,698.1291709283946,kml_1110,719.4,RAIL CORRIDOR,85.4,Limbang CO c/o Yew Tee CC,1145.8
https://www.propertyguru.com.sg/listing/hdb-for-sale-690d-choa-chu-kang-crescent-60102601,"S$ 580,000",Bukit Batok,3,2.0,"1,184 sqft",MID FLOOR,,HDB,60102601,690D Choa Chu Kang Crescent,684690.0,690D CHOA CHU KANG CRESCENT SINGAPORE 684690,CHOA CHU KANG CRESCENT,1.40214978725236,103.752101604265,YEW TEE MRT STATION,Exit B,698.1291709283946,kml_161,719.4,RAIL CORRIDOR,85.4,Yew Tee CC,1145.8
https://www.propertyguru.com.sg/listing/hdb-for-sale-690d-choa-chu-kang-crescent-60102601,"S$ 580,000",Bukit Batok,3,2.0,"1,184 sqft",MID FLOOR,,HDB,60102601,690D Choa Chu Kang Crescent,684690.0,690D CHOA CHU KANG CRESCENT SINGAPORE 684690,CHOA CHU KANG CRESCENT,1.40214978725236,103.752101604265,YEW TEE MRT STATION,Exit B,698.1291709283946,kml_161,719.4,RAIL CORRIDOR,85.4,Limbang CO c/o Yew Tee CC,1145.8
https://www.propertyguru.com.sg/listing/hdb-for-sale-103a-bidadari-park-drive-500057657,"S$ 800,000",Clementi,2,2.0,732 sqft,,,HDB,500057657,103A Bidadari Park Drive,341103.0,103A BIDADARI PARK DRIVE ALKAFF COURTVIEW SINGAPORE 341103,BIDADARI PARK DRIVE,1.33560960429896,103.871727597314,WOODLEIGH MRT STATION,Exit A,334.2348613015329,kml_773,170.5,GREENWAY SOUTH,47.6,Bidadari CC (U/C),345.2
https://www.propertyguru.com.sg/listing/hdb-for-sale-752-woodlands-circle-60198640,"S$ 648,888",Clementi,3,2.0,"1,302 sqft",High floor,,HDB,60198640,752 Woodlands Circle,730752.0,752 WOODLANDS CIRCLE SINGAPORE 730752,WOODLANDS CIRCLE,1.44560469012994,103.794908594493,ADMIRALTY MRT STATION,Exit C,838.0616669752116,kml_922,320.1,ADMIRALTY PK,1149.3,Woodlands CC (Pending U/C),986.6
https://www.propertyguru.com.sg/listing/hdb-for-sale-91a-telok-blangah-street-31-60127662,"S$ 900,000",Bukit Merah,3,2.0,"1,001 sqft",,,HDB,60127662,91A Telok Blangah Street 31,101091.0,91A TELOK BLANGAH STREET 31 TELOK BLANGAH PARCVIEW SINGAPORE 101091,TELOK BLANGAH STREET 31,1.27666192078908,103.807127959576,TELOK BLANGAH MRT STATION,Exit A,728.1559290836464,kml_215,360.9,TELOK BLANGAH HILL PARK,144.0,Telok Blangah CC,215.6
https://www.propertyguru.com.sg/listing/hdb-for-sale-128-bukit-merah-view-60230570,"S$ 440,000",Bukit Merah,2,2.0,699 sqft,High Floor,,HDB,60230570,128 Bukit Merah View,150128.0,128 BUKIT MERAH VIEW BUKIT MERAH VIEW SINGAPORE 150128,BUKIT MERAH VIEW,1.28264675199072,103.823327111496,TIONG BAHRU MRT STATION,Exit A,534.4683002097173,kml_409,252.5,RAIL CORRIDOR,317.1,Henderson CC,371.9
https://www.propertyguru.com.sg/listing/for-sale-pinery-residences-500074730,"S$ 1,498,000",Bedok,2,2.0,624 sqft,,,HDB,500074730,For Sale Pinery Residences,,,,,,,,,,,,,,
https://www.propertyguru.com.sg/listing/for-sale-pinery-residences-500074663,"S$ 1,930,000",Bedok,3,3.0,807 sqft,,,HDB,500074663,For Sale Pinery Residences,,,,,,,,,,,,,,
https://www.propertyguru.com.sg/listing/for-sale-pinery-residences-500074724,"S$ 3,508,000",Bedok,5,4.0,"1,475 sqft",,,HDB,500074724,For Sale Pinery Residences,,,,,,,,,,,,,,
https://www.propertyguru.com.sg/listing/hdb-for-sale-104a-bidadari-park-drive-60224895,"S$ 1,148,000",Clementi,3,2.0,"1,001 sqft",,,HDB,60224895,104A Bidadari Park Drive,341104.0,104A BIDADARI PARK DRIVE ALKAFF COURTVIEW SINGAPORE 341104,BIDADARI PARK DRIVE,1.33532197788922,103.870933993338,WOODLEIGH MRT STATION,Exit A,354.5654136616335,kml_265,135.7,GREENWAY SOUTH,91.9,Bidadari CC (U/C),385.7
https://www.propertyguru.com.sg/listing/hdb-for-sale-264-toa-payoh-apex-60180616,"S$ 1,300,000",Clementi,3,2.0,"1,001 sqft",High Floor,,HDB,60180616,264 Toa Payoh Apex,310264.0,264 TOA PAYOH EAST TOA PAYOH APEX SINGAPORE 310264,TOA PAYOH EAST,1.332464536405,103.855237512058,TOA PAYOH MRT STATION,Exit A,835.3177138421099,kml_328,342.0,TOA PAYOH TOWN PK,645.8,Toa Payoh East CC (Pending relocation),425.6
https://www.propertyguru.com.sg/listing/hdb-for-sale-118a-alkaff-crescent-60128045,"S$ 1,048,000",Clementi,3,2.0,"1,001 sqft",,,HDB,60128045,118A Alkaff Crescent,341118.0,118A ALKAFF CRESCENT ALKAFF LAKEVIEW SINGAPORE 341118,ALKAFF CRESCENT,1.33649028446747,103.873777299654,WOODLEIGH MRT STATION,Exit A,387.181142275521,kml_773,135.2,GREENWAY SOUTH,143.5,Bidadari CC (U/C),341.1
https://www.propertyguru.com.sg/listing/hdb-for-sale-532-woodlands-drive-14-60223835,"S$ 689,999",Clementi,4,2.0,"1,334 sqft",,,HDB,60223835,532 Woodlands Drive 14,730532.0,532 WOODLANDS DRIVE 14 WOODLANDS VISTA SINGAPORE 730532,WOODLANDS DRIVE 14,1.43080005523895,103.792373236242,WOODLANDS SOUTH MRT STATION,Exit 2,373.6295712397208,kml_689,173.3,WOODLANDS HEALING GARDEN,563.3,ACE The Place CC,366.0
https://www.propertyguru.com.sg/listing/hdb-for-sale-530a-pasir-ris-drive-1-500079942,"S$ 770,000",Clementi,3,2.0,926 sqft,,,HDB,500079942,530A Pasir Ris Drive 1,511530.0,530A PASIR RIS DRIVE 1 PASIR RIS ONE SINGAPORE 511530,PASIR RIS DRIVE 1,1.37114053931458,103.949850548422,PASIR RIS MRT STATION,Exit A,197.7308716986488,kml_877,145.5,PASIR RIS TOWN PK,149.4,Pasir Ris East CC,1077.9
https://www.propertyguru.com.sg/listing/hdb-for-sale-530a-pasir-ris-drive-1-500079942,"S$ 770,000",Clementi,3,2.0,926 sqft,,,HDB,500079942,530A Pasir Ris Drive 1,511530.0,530A PASIR RIS DRIVE 1 PASIR RIS ONE SINGAPORE 511530,PASIR RIS DRIVE 1,1.37114053931458,103.949850548422,PASIR RIS MRT STATION,Exit A,197.7308716986488,kml_701,145.5,PASIR RIS TOWN PK,149.4,Pasir Ris East CC,1077.9
https://www.propertyguru.com.sg/listing/hdb-for-sale-263-tampines-street-21-500066192,"S$ 638,888",Clementi,3,2.0,"1,152 sqft",,,HDB,500066192,263 Tampines Street 21,520263.0,263 TAMPINES STREET 21 SINGAPORE 520263,TAMPINES STREET 21,1.35330602954221,103.95114433296,TAMPINES EAST MRT STATION,Exit B,514.4550456782291,kml_1146,208.3,SUN PLAZA PK,864.0,Tampines East CC,386.9
https://www.propertyguru.com.sg/listing/hdb-for-sale-263-tampines-street-21-500066192,"S$ 638,888",Clementi,3,2.0,"1,152 sqft",,,HDB,500066192,263 Tampines Street 21,520263.0,263 TAMPINES STREET 21 SINGAPORE 520263,TAMPINES STREET 21,1.35330602954221,103.95114433296,TAMPINES EAST MRT STATION,Exit B,514.4550456782291,kml_1049,208.3,SUN PLAZA PK,864.0,Tampines East CC,386.9
https://www.propertyguru.com.sg/listing/hdb-for-sale-263-tampines-street-21-500066192,"S$ 638,888",Clementi,3,2.0,"1,152 sqft",,,HDB,500066192,263 Tampines Street 21,520263.0,263 TAMPINES STREET 21 SINGAPORE 520263,TAMPINES STREET 21,1.35330602954221,103.95114433296,TAMPINES EAST MRT STATION,Exit B,514.4550456782291,kml_972,208.3,SUN PLAZA PK,864.0,Tampines East CC,386.9
https://www.propertyguru.com.sg/listing/hdb-for-sale-207-tampines-street-21-500076720,"S$ 800,000",Clementi,4,2.0,"1,431 sqft",,,HDB,500076720,207 Tampines Street 21,520207.0,207 TAMPINES STREET 21 SINGAPORE 520207,TAMPINES STREET 21,1.35136271207896,103.952226216363,TAMPINES EAST MRT STATION,Exit B,572.5845830069998,kml_899,181.1,JLN PELATOK PG,1012.1,Tampines East CC,345.9
https://www.propertyguru.com.sg/listing/hdb-for-sale-207-tampines-street-21-500076720,"S$ 800,000",Clementi,4,2.0,"1,431 sqft",,,HDB,500076720,207 Tampines Street 21,520207.0,207 TAMPINES STREET 21 SINGAPORE 520207,TAMPINES STREET 21,1.35136271207896,103.952226216363,TAMPINES EAST MRT STATION,Exit B,572.5845830069998,kml_113,181.1,JLN PELATOK PG,1012.1,Tampines East CC,345.9
https://www.propertyguru.com.sg/listing/hdb-for-sale-207-tampines-street-21-500076720,"S$ 800,000",Clementi,4,2.0,"1,431 sqft",,,HDB,500076720,207 Tampines Street 21,520207.0,207 TAMPINES STREET 21 SINGAPORE 520207,TAMPINES STREET 21,1.35136271207896,103.952226216363,TAMPINES EAST MRT STATION,Exit B,572.5845830069998,kml_435,181.1,JLN PELATOK PG,1012.1,Tampines East CC,345.9
https://www.propertyguru.com.sg/listing/hdb-for-sale-135-potong-pasir-avenue-3-500062293,"S$ 700,000",Clementi,3,2.0,"1,108 sqft",,,HDB,500062293,135 Potong Pasir Avenue 3,350135.0,135 POTONG PASIR AVENUE 3 SINGAPORE 350135,POTONG PASIR AVENUE 3,1.33469058687886,103.866824291288,POTONG PASIR MRT STATION,Exit A,317.54947850193565,kml_996,279.1,GREENWAY SOUTH,372.0,Potong Pasir CC,239.4
https://www.propertyguru.com.sg/listing/hdb-for-sale-135-potong-pasir-avenue-3-500062293,"S$ 700,000",Clementi,3,2.0,"1,108 sqft",,,HDB,500062293,135 Potong Pasir Avenue 3,350135.0,135 POTONG PASIR AVENUE 3 SINGAPORE 350135,POTONG PASIR AVENUE 3,1.33469058687886,103.866824291288,POTONG PASIR MRT STATION,Exit A,317.54947850193565,kml_812,279.1,GREENWAY SOUTH,372.0,Potong Pasir CC,239.4
https://www.propertyguru.com.sg/listing/hdb-for-sale-437-fajar-road-60237843,"S$ 530,000",Bukit Panjang,3,2.0,"1,076 sqft",,,HDB,60237843,437 Fajar Road,670437.0,437 FAJAR ROAD SINGAPORE 670437,FAJAR ROAD,1.38250957258766,103.769548068869,FAJAR LRT STATION,Exit A,250.97501167419287,kml_412,143.5,ZHENGHUA NATURE PARK,455.6,Zhenghua CC (Pending U/C),523.4
https://www.propertyguru.com.sg/listing/hdb-for-sale-337-bukit-batok-street-34-60226701,"S$ 490,000",Bukit Batok,3,1.0,904 sqft,,,HDB,60226701,337 Bukit Batok Street 34,650337.0,337 BUKIT BATOK STREET 34 SINGAPORE 650337,BUKIT BATOK STREET 34,1.36348296381773,103.749393361059,BUKIT GOMBAK MRT STATION,Exit D,545.3420262159831,kml_593,283.0,BUKIT GOMBAK PARK,390.2,Hong Kah North CC,489.2
https://www.propertyguru.com.sg/listing/hdb-for-sale-54-havelock-road-500016999,"S$ 840,000",Bukit Merah,2,2.0,742 sqft,,,HDB,500016999,54 Havelock Road,161054.0,54 HAVELOCK ROAD HAVELOCK VIEW SINGAPORE 161054,HAVELOCK ROAD,1.28930893190551,103.829233342268,TIONG BAHRU MRT STATION,Exit B,380.347623856295,kml_528,77.1,GANGES AVE OS,288.0,Kim Seng CC,169.1
https://www.propertyguru.com.sg/listing/hdb-for-sale-54-havelock-road-500016999,"S$ 840,000",Bukit Merah,2,2.0,742 sqft,,,HDB,500016999,54 Havelock Road,161054.0,54 HAVELOCK ROAD HAVELOCK VIEW SINGAPORE 161054,HAVELOCK ROAD,1.28930893190551,103.829233342268,TIONG BAHRU MRT STATION,Exit B,380.347623856295,kml_1189,77.1,GANGES AVE OS,288.0,Kim Seng CC,169.1
https://www.propertyguru.com.sg/listing/hdb-for-sale-544-pasir-ris-street-51-500052236,"S$ 958,000",Clementi,4,2.0,"1,550 sqft",,,HDB,500052236,544 Pasir Ris Street 51,510544.0,544 PASIR RIS STREET 51 SINGAPORE 510544,PASIR RIS STREET 51,1.36898105704567,103.952193730257,PASIR RIS MRT STATION,Exit A,534.2368969187503,kml_877,472.4,PASIR RIS TOWN PK,61.5,Pasir Ris East CC,780.7
https://www.propertyguru.com.sg/listing/hdb-for-sale-544-pasir-ris-street-51-500052236,"S$ 958,000",Clementi,4,2.0,"1,550 sqft",,,HDB,500052236,544 Pasir Ris Street 51,510544.0,544 PASIR RIS STREET 51 SINGAPORE 510544,PASIR RIS STREET 51,1.36898105704567,103.952193730257,PASIR RIS MRT STATION,Exit A,534.2368969187503,kml_701,472.4,PASIR RIS TOWN PK,61.5,Pasir Ris East CC,780.7
https://www.propertyguru.com.sg/listing/hdb-for-sale-114-clementi-street-13-60211594,"S$ 1,199,000",Bishan,3,3.0,"1,528 sqft",,,HDB,60211594,114 Clementi Street 13,120114.0,114 CLEMENTI STREET 13 SUNSET WAY RESIDENCE SINGAPORE 120114,CLEMENTI STREET 13,1.32391547713763,103.770629507887,CLEMENTI MRT STATION,Exit B,1117.282533503946,kml_1033,214.6,CLEMENTI CRESCENT PG,234.8,Clementi CC,627.7
https://www.propertyguru.com.sg/listing/hdb-for-sale-320-ubi-avenue-1-60214474,"S$ 550,000",Bedok,3,2.0,904 sqft,,,HDB,60214474,320 Ubi Avenue 1,400320.0,320 UBI AVENUE 1 KAMPUNG UBI ESTATE SINGAPORE 400320,UBI AVENUE 1,1.32880527103033,103.904280456723,UBI MRT STATION,Exit A,505.8454729744447,kml_687,228.8,JALAN SINGA PARK,340.8,Kampong Kembangan CC (Pending U/C),1126.1
https://www.propertyguru.com.sg/listing/hdb-for-sale-320-ubi-avenue-1-60214474,"S$ 550,000",Bedok,3,2.0,904 sqft,,,HDB,60214474,320 Ubi Avenue 1,400320.0,320 UBI AVENUE 1 KAMPUNG UBI ESTATE SINGAPORE 400320,UBI AVENUE 1,1.32880527103033,103.904280456723,UBI MRT STATION,Exit A,505.8454729744447,kml_1140,228.8,JALAN SINGA PARK,340.8,Kampong Kembangan CC (Pending U/C),1126.1
https://www.propertyguru.com.sg/listing/hdb-for-sale-27a-jalan-membina-500078014,"S$ 985,000",Bukit Merah,3,2.0,969 sqft,High Floor,,HDB,500078014,27A Jalan Membina,163027.0,27A JALAN MEMBINA MEMBINA COURT SINGAPORE 163027,JALAN MEMBINA,1.2822186913861,103.824536254761,TIONG BAHRU MRT STATION,Exit A,479.0136948931444,kml_409,126.6,RAIL CORRIDOR,295.0,Henderson CC,440.7
https://www.propertyguru.com.sg/listing/for-sale-pinery-residences-500074711,"S$ 2,722,000",Bedok,4,3.0,"1,141 sqft",,,HDB,500074711,For Sale Pinery Residences,,,,,,,,,,,,,,
https://www.propertyguru.com.sg/listing/hdb-for-sale-608-elias-road-25562337,"S$ 950,000",Clementi,3,2.0,"1,604 sqft",,,HDB,25562337,608 Elias Road,510608.0,608 ELIAS ROAD SINGAPORE 510608,ELIAS ROAD,1.37582149131802,103.943078888008,PASIR RIS MRT STATION,Exit B,748.35596307111,kml_383,331.0,SG API API PK,264.5,Pasir Ris Elias CC,296.1
https://www.propertyguru.com.sg/listing/hdb-for-sale-608-elias-road-25562337,"S$ 950,000",Clementi,3,2.0,"1,604 sqft",,,HDB,25562337,608 Elias Road,510608.0,608 ELIAS ROAD SINGAPORE 510608,ELIAS ROAD,1.37582149131802,103.943078888008,PASIR RIS MRT STATION,Exit B,748.35596307111,kml_1061,331.0,SG API API PK,264.5,Pasir Ris Elias CC,296.1
https://www.propertyguru.com.sg/listing/hdb-for-sale-608-elias-road-25562337,"S$ 950,000",Clementi,3,2.0,"1,604 sqft",,,HDB,25562337,608 Elias Road,510608.0,608 ELIAS ROAD SINGAPORE 510608,ELIAS ROAD,1.37582149131802,103.943078888008,PASIR RIS MRT STATION,Exit B,748.35596307111,kml_432,331.0,SG API API PK,264.5,Pasir Ris Elias CC,296.1
https://www.propertyguru.com.sg/listing/hdb-for-sale-608-elias-road-25562337,"S$ 950,000",Clementi,3,2.0,"1,604 sqft",,,HDB,25562337,608 Elias Road,510608.0,608 ELIAS ROAD SINGAPORE 510608,ELIAS ROAD,1.37582149131802,103.943078888008,PASIR RIS MRT STATION,Exit B,748.35596307111,kml_197,331.0,SG API API PK,264.5,Pasir Ris Elias CC,296.1
https://www.propertyguru.com.sg/listing/hdb-for-sale-217-bishan-street-23-60027295,"S$ 850,000",Ang Mo Kio,3,2.0,"1,108 sqft",High Floor,,HDB,60027295,217 Bishan Street 23,570217.0,217 BISHAN STREET 23 SINGAPORE 570217,BISHAN STREET 23,1.35674001530713,103.849329508235,BISHAN MRT STATION,Exit D,639.7222845679405,kml_304,139.6,BISHAN-ANG MO KIO PARK (RIVER PLAINS),67.2,Thomson CC (Till 1Q 2022),470.4
https://www.propertyguru.com.sg/listing/hdb-for-sale-111-pasir-ris-street-11-24437397,"S$ 870,000",Clementi,4,3.0,"1,561 sqft",,,HDB,24437397,111 Pasir Ris Street 11,510111.0,111 PASIR RIS STREET 11 SINGAPORE 510111,PASIR RIS STREET 11,1.36805791982647,103.956378453152,PASIR RIS MRT STATION,Exit A,946.7328028274092,kml_562,200.0,PASIR RIS TOWN PK,318.5,Pasir Ris East CC,319.2
https://www.propertyguru.com.sg/listing/hdb-for-sale-204-serangoon-central-500075813,"S$ 650,000",Clementi,2,2.0,904 sqft,,,HDB,500075813,204 Serangoon Central,550204.0,204 SERANGOON CENTRAL SINGAPORE 550204,SERANGOON CENTRAL,1.35243827939715,103.873298136881,SERANGOON MRT STATION,Exit E,185.22481352640804,kml_632,134.2,UPPER SERANGOON PARK,217.8,Braddell Heights CC (Pending U/C),338.7
https://www.propertyguru.com.sg/listing/hdb-for-sale-619-woodlands-drive-52-500031202,"S$ 559,000",Clementi,3,2.0,"1,022 sqft",11th Floor,,HDB,500031202,619 Woodlands Drive 52,730619.0,619 WOODLANDS DRIVE 52 SINGAPORE 730619,WOODLANDS DRIVE 52,1.43343677091965,103.79805544789,WOODLANDS SOUTH MRT STATION,Exit 3,773.00306454571,kml_200,242.3,WOODLANDS HEALING GARDEN,1016.1,Woodlands Galaxy CC,800.7
https://www.propertyguru.com.sg/listing/hdb-for-sale-103-jalan-rajah-500072456,"S$ 1,028,000",Clementi,3,2.0,"1,453 sqft",HIGH FLOOR,,HDB,500072456,103 Jalan Rajah,321103.0,103 JALAN RAJAH SINGAPORE 321103,JALAN RAJAH,1.32734143333539,103.852780650365,TOA PAYOH MRT STATION,Exit A,793.3836399822352,kml_798,320.0,TOA PAYOH TOWN PK,454.9,Whampoa CC,554.6
https://www.propertyguru.com.sg/listing/hdb-for-sale-788c-woodlands-crescent-500004453,"S$ 838,000",Clementi,4,3.0,"1,539 sqft",,,HDB,500004453,788C Woodlands Crescent,733788.0,788C WOODLANDS CRESCENT SINGAPORE 733788,WOODLANDS CRESCENT,1.44387179785993,103.801833448049,ADMIRALTY MRT STATION,Exit D,374.8559028063417,kml_243,358.2,ADMIRALTY PK,1853.3,Woodlands Galaxy CC,541.1
https://www.propertyguru.com.sg/listing/hdb-for-sale-680a-jurong-west-central-1-500039762,"S$ 820,000",Clementi,4,2.0,"1,442 sqft",High Floor,,HDB,500039762,680A Jurong West Central 1,641680.0,680A JURONG WEST CENTRAL 1 SINGAPORE 641680,JURONG WEST CENTRAL 1,1.34462393402178,103.705560050376,BOON LAY MRT STATION,Exit C,655.9460211847579,kml_358,242.4,JURONG CENTRAL PARK,612.2,The Frontier CC,475.6
https://www.propertyguru.com.sg/listing/hdb-for-sale-231-bukit-batok-east-avenue-5-60210817,"S$ 400,000",Bukit Batok,2,2.0,721 sqft,,,HDB,60210817,231 Bukit Batok East Avenue 5,650231.0,231 BUKIT BATOK EAST AVENUE 5 GOMBAK GARDENS SINGAPORE 650231,BUKIT BATOK EAST AVENUE 5,1.34908254998383,103.754518186115,BUKIT BATOK MRT STATION,Exit A,507.94607005854215,kml_171,305.8,BUKIT BATOK TOWN PARK,417.1,Bukit Batok East CC (U/C),409.4
https://www.propertyguru.com.sg/listing/hdb-for-sale-685b-choa-chu-kang-crescent-500061663,"S$ 560,000",Bukit Panjang,3,2.0,"1,184 sqft",,,HDB,500061663,685B Choa Chu Kang Crescent,682685.0,685B CHOA CHU KANG CRESCENT SINGAPORE 682685,CHOA CHU KANG CRESCENT,1.40363737705198,103.748176927162,YEW TEE MRT STATION,Exit B,626.4292722274823,kml_1110,630.0,RAIL CORRIDOR,551.7,Yew Tee CC,1037.8
https://www.propertyguru.com.sg/listing/hdb-for-sale-685b-choa-chu-kang-crescent-500061663,"S$ 560,000",Bukit Panjang,3,2.0,"1,184 sqft",,,HDB,500061663,685B Choa Chu Kang Crescent,682685.0,685B CHOA CHU KANG CRESCENT SINGAPORE 682685,CHOA CHU KANG CRESCENT,1.40363737705198,103.748176927162,YEW TEE MRT STATION,Exit B,626.4292722274823,kml_1110,630.0,RAIL CORRIDOR,551.7,Limbang CO c/o Yew Tee CC,1037.8
https://www.propertyguru.com.sg/listing/hdb-for-sale-685b-choa-chu-kang-crescent-500061663,"S$ 560,000",Bukit Panjang,3,2.0,"1,184 sqft",,,HDB,500061663,685B Choa Chu Kang Crescent,682685.0,685B CHOA CHU KANG CRESCENT SINGAPORE 682685,CHOA CHU KANG CRESCENT,1.40363737705198,103.748176927162,YEW TEE MRT STATION,Exit B,626.4292722274823,kml_161,630.0,RAIL CORRIDOR,551.7,Yew Tee CC,1037.8
https://www.propertyguru.com.sg/listing/hdb-for-sale-685b-choa-chu-kang-crescent-500061663,"S$ 560,000",Bukit Panjang,3,2.0,"1,184 sqft",,,HDB,500061663,685B Choa Chu Kang Crescent,682685.0,685B CHOA CHU KANG CRESCENT SINGAPORE 682685,CHOA CHU KANG CRESCENT,1.40363737705198,103.748176927162,YEW TEE MRT STATION,Exit B,626.4292722274823,kml_161,630.0,RAIL CORRIDOR,551.7,Limbang CO c/o Yew Tee CC,1037.8
https://www.propertyguru.com.sg/listing/hdb-for-sale-261-bishan-street-22-500076082,"S$ 1,450,000",Ang Mo Kio,4,3.0,"1,571 sqft",,,HDB,500076082,261 Bishan Street 22,570261.0,261 BISHAN STREET 22 SINGAPORE 570261,BISHAN STREET 22,1.35898689332218,103.843324418377,BISHAN MRT STATION,Exit B,1040.9050266391328,kml_857,158.7,BISHAN-ANG MO KIO PARK (RIVER PLAINS),317.5,Thomson CC (Till 1Q 2022),248.6
https://www.propertyguru.com.sg/listing/hdb-for-sale-261-bishan-street-22-500076082,"S$ 1,450,000",Ang Mo Kio,4,3.0,"1,571 sqft",,,HDB,500076082,261 Bishan Street 22,570261.0,261 BISHAN STREET 22 SINGAPORE 570261,BISHAN STREET 22,1.35898689332218,103.843324418377,BISHAN MRT STATION,Exit B,1040.9050266391328,kml_1122,158.7,BISHAN-ANG MO KIO PARK (RIVER PLAINS),317.5,Thomson CC (Till 1Q 2022),248.6
https://www.propertyguru.com.sg/listing/hdb-for-sale-261-bishan-street-22-500076082,"S$ 1,450,000",Ang Mo Kio,4,3.0,"1,571 sqft",,,HDB,500076082,261 Bishan Street 22,570261.0,261 BISHAN STREET 22 SINGAPORE 570261,BISHAN STREET 22,1.35898689332218,103.843324418377,BISHAN MRT STATION,Exit B,1040.9050266391328,kml_77,158.7,BISHAN-ANG MO KIO PARK (RIVER PLAINS),317.5,Thomson CC (Till 1Q 2022),248.6
https://www.propertyguru.com.sg/listing/hdb-for-sale-261-bishan-street-22-500076082,"S$ 1,450,000",Ang Mo Kio,4,3.0,"1,571 sqft",,,HDB,500076082,261 Bishan Street 22,570261.0,261 BISHAN STREET 22 SINGAPORE 570261,BISHAN STREET 22,1.35898689332218,103.843324418377,BISHAN MRT STATION,Exit B,1040.9050266391328,kml_30,158.7,BISHAN-ANG MO KIO PARK (RIVER PLAINS),317.5,Thomson CC (Till 1Q 2022),248.6
https://www.propertyguru.com.sg/listing/hdb-for-sale-987c-buangkok-green-60211521,"S$ 630,000",Clementi,3,2.0,"1,001 sqft",,,HDB,60211521,987C Buangkok Green,533987.0,987C BUANGKOK GREEN BUANGKOK VALE SINGAPORE 533987,BUANGKOK GREEN,1.37932814973617,103.877789198004,TONGKANG LRT STATION,Exit A,1423.2068942068329,kml_338,238.6,LUXUS HILLS PARK,201.8,Ci Yuan CC,732.3
https://www.propertyguru.com.sg/listing/hdb-for-sale-426-tampines-street-41-60067738,"S$ 908,888",Clementi,4,2.0,"1,636 sqft",HIGH FLOOR,,HDB,60067738,426 Tampines Street 41,520426.0,426 TAMPINES STREET 41 SUN PLAZA VIEW SINGAPORE 520426,TAMPINES STREET 41,1.35957478152808,103.947930045838,TAMPINES MRT STATION,Exit D,704.9948144358837,kml_988,234.6,SUN PLAZA PK,142.1,Tampines North CC (U/C),285.5
https://www.propertyguru.com.sg/listing/hdb-for-sale-773-bedok-reservoir-view-60207240,"S$ 818,000",Bedok,3,2.0,"1,238 sqft",high floor,,HDB,60207240,773 Bedok Reservoir View,470773.0,773 BEDOK RESERVOIR VIEW LONGVALE SINGAPORE 470773,BEDOK RESERVOIR VIEW,1.33631602180285,103.93745788464,BEDOK RESERVOIR MRT STATION,Exit B,442.1995204033002,kml_363,293.6,BEDOK RESERVOIR PK,407.2,Fengshan CC (U/C),627.2
https://www.propertyguru.com.sg/listing/hdb-for-sale-530c-pasir-ris-drive-1-500049567,"S$ 998,888",Clementi,3,2.0,"1,130 sqft",High Floor,,HDB,500049567,530C Pasir Ris Drive 1,513530.0,530C PASIR RIS DRIVE 1 LITTLE PRESCHOOL PTE. LTD SINGAPORE 513530,PASIR RIS DRIVE 1,1.37162618190542,103.950113871559,PASIR RIS MRT STATION,Exit A,160.63273939621297,kml_877,101.3,PASIR RIS TOWN PK,92.7,Pasir Ris East CC,1065.3
https://www.propertyguru.com.sg/listing/hdb-for-sale-530c-pasir-ris-drive-1-500049567,"S$ 998,888",Clementi,3,2.0,"1,130 sqft",High Floor,,HDB,500049567,530C Pasir Ris Drive 1,513530.0,530C PASIR RIS DRIVE 1 LITTLE PRESCHOOL PTE. LTD SINGAPORE 513530,PASIR RIS DRIVE 1,1.37162618190542,103.950113871559,PASIR RIS MRT STATION,Exit A,160.63273939621297,kml_701,101.3,PASIR RIS TOWN PK,92.7,Pasir Ris East CC,1065.3
https://www.propertyguru.com.sg/listing/hdb-for-sale-344-ang-mo-kio-avenue-3-60237241,"S$ 750,000",Ang Mo Kio,3,2.0,"1,054 sqft",,99-year leasehold,HDB,60237241,344 Ang Mo Kio Avenue 3,560344.0,344 ANG MO KIO AVENUE 3 TECK GHEE EVERGREEN SINGAPORE 560344,ANG MO KIO AVENUE 3,1.36797705108684,103.849264839398,ANG MO KIO MRT STATION,Exit C,162.96490768366428,kml_1045,104.2,ANG MO KIO TOWN GARDEN EAST,176.5,Cheng San CC (Pending U/C),421.9
https://www.propertyguru.com.sg/listing/hdb-for-sale-123-lorong-1-toa-payoh-60213194,"S$ 350,000",Clementi,3,1.0,722 sqft,,,HDB,60213194,123 Lorong 1 Toa Payoh,310123.0,123 LORONG 1 TOA PAYOH TOA PAYOH VIEW SINGAPORE 310123,LORONG 1 TOA PAYOH,1.33864901784911,103.845703844955,BRADDELL MRT STATION,Exit B,245.7316635829186,kml_67,0.0,TOA PAYOH TOWN PK,824.2,Toa Payoh West CC,374.0
https://www.propertyguru.com.sg/listing/hdb-for-sale-123-lorong-1-toa-payoh-60213194,"S$ 350,000",Clementi,3,1.0,722 sqft,,,HDB,60213194,123 Lorong 1 Toa Payoh,310123.0,123 LORONG 1 TOA PAYOH TOA PAYOH VIEW SINGAPORE 310123,LORONG 1 TOA PAYOH,1.33864901784911,103.845703844955,BRADDELL MRT STATION,Exit B,245.7316635829186,kml_168,0.0,TOA PAYOH TOWN PK,824.2,Toa Payoh West CC,374.0
https://www.propertyguru.com.sg/listing/hdb-for-sale-236-tampines-street-21-500052827,"S$ 590,000",Clementi,2,2.0,786 sqft,,,HDB,500052827,236 Tampines Street 21,520236.0,236 TAMPINES STREET 21 SINGAPORE 520236,TAMPINES STREET 21,1.35590516879669,103.947447486706,TAMPINES MRT STATION,Exit B,371.38212050024646,kml_852,207.6,SUN PLAZA PK,372.9,Tampines North CC (U/C),186.8
https://www.propertyguru.com.sg/listing/hdb-for-sale-157-yung-loh-road-60199655,"S$ 650,000",Choa Chu Kang,4,2.0,"1,464 sqft",,,HDB,60199655,157 Yung Loh Road,610157.0,157 YUNG LOH ROAD SINGAPORE 610157,YUNG LOH ROAD,1.32861633614014,103.721651422673,LAKESIDE MRT STATION,Exit A,1713.9572132296846,kml_277,200.0,JLG: LAKESIDE GARDEN,363.0,Taman Jurong CC,739.8
https://www.propertyguru.com.sg/listing/hdb-for-sale-451b-bukit-batok-west-avenue-6-500032269,"S$ 760,000",Bukit Batok,3,2.0,"1,001 sqft",high floor,,HDB,500032269,451B Bukit Batok West Avenue 6,652451.0,451B BUKIT BATOK WEST AVENUE 6 WEST TERRA @ BUKIT BATOK SINGAPORE 652451,BUKIT BATOK WEST AVENUE 6,1.35248381356888,103.743414725495,BUKIT BATOK MRT STATION,Exit C,779.2159911768201,kml_270,84.8,BUKIT BATOK TOWN PARK,1143.8,Bukit Batok CC (Pending U/C),522.0
https://www.propertyguru.com.sg/listing/hdb-for-sale-451b-bukit-batok-west-avenue-6-500032269,"S$ 760,000",Bukit Batok,3,2.0,"1,001 sqft",high floor,,HDB,500032269,451B Bukit Batok West Avenue 6,652451.0,451B BUKIT BATOK WEST AVENUE 6 WEST TERRA @ BUKIT BATOK SINGAPORE 652451,BUKIT BATOK WEST AVENUE 6,1.35248381356888,103.743414725495,BUKIT BATOK MRT STATION,Exit C,779.2159911768201,kml_345,84.8,BUKIT BATOK TOWN PARK,1143.8,Bukit Batok CC (Pending U/C),522.0
https://www.propertyguru.com.sg/listing/hdb-for-sale-357-woodlands-avenue-5-500026369,"S$ 930,000",Clementi,4,2.0,"1,571 sqft",High floor,,HDB,500026369,357 Woodlands Avenue 5,730357.0,357 WOODLANDS AVENUE 5 SINGAPORE 730357,WOODLANDS AVENUE 5,1.43314522839089,103.78443410696,WOODLANDS MRT STATION,Exit 1,420.5914986571576,kml_563,271.1,WOODLANDS TOWN PK EAST,555.4,Woodgrove CC,164.8
https://www.propertyguru.com.sg/listing/hdb-for-sale-367-woodlands-avenue-5-25365142,"S$ 778,000",Clementi,4,2.0,"1,292 sqft",High floor,,HDB,25365142,367 Woodlands Avenue 5,730367.0,367 WOODLANDS AVENUE 5 SINGAPORE 730367,WOODLANDS AVENUE 5,1.43350424248721,103.786496080056,WOODLANDS MRT STATION,Exit 7,198.0927191933662,kml_563,137.3,WOODLANDS TOWN PK EAST,716.6,Woodgrove CC,253.4
https://www.propertyguru.com.sg/listing/hdb-for-sale-242-bishan-street-22-500085880,"S$ 880,000",Ang Mo Kio,3,2.0,"1,109 sqft",,,HDB,500085880,242 Bishan Street 22,570242.0,242 BISHAN STREET 22 SINGAPORE 570242,BISHAN STREET 22,1.36134172851942,103.844874736551,ANG MO KIO MRT STATION,Exit C,1028.4603958762405,kml_857,268.3,BISHAN-ANG MO KIO PARK (RIVER PLAINS),6.9,Thomson CC (Till 1Q 2022),312.9
https://www.propertyguru.com.sg/listing/hdb-for-sale-242-bishan-street-22-500085880,"S$ 880,000",Ang Mo Kio,3,2.0,"1,109 sqft",,,HDB,500085880,242 Bishan Street 22,570242.0,242 BISHAN STREET 22 SINGAPORE 570242,BISHAN STREET 22,1.36134172851942,103.844874736551,ANG MO KIO MRT STATION,Exit C,1028.4603958762405,kml_1122,268.3,BISHAN-ANG MO KIO PARK (RIVER PLAINS),6.9,Thomson CC (Till 1Q 2022),312.9
https://www.propertyguru.com.sg/listing/hdb-for-sale-242-bishan-street-22-500085880,"S$ 880,000",Ang Mo Kio,3,2.0,"1,109 sqft",,,HDB,500085880,242 Bishan Street 22,570242.0,242 BISHAN STREET 22 SINGAPORE 570242,BISHAN STREET 22,1.36134172851942,103.844874736551,ANG MO KIO MRT STATION,Exit C,1028.4603958762405,kml_77,268.3,BISHAN-ANG MO KIO PARK (RIVER PLAINS),6.9,Thomson CC (Till 1Q 2022),312.9
https://www.propertyguru.com.sg/listing/hdb-for-sale-242-bishan-street-22-500085880,"S$ 880,000",Ang Mo Kio,3,2.0,"1,109 sqft",,,HDB,500085880,242 Bishan Street 22,570242.0,242 BISHAN STREET 22 SINGAPORE 570242,BISHAN STREET 22,1.36134172851942,103.844874736551,ANG MO KIO MRT STATION,Exit C,1028.4603958762405,kml_30,268.3,BISHAN-ANG MO KIO PARK (RIVER PLAINS),6.9,Thomson CC (Till 1Q 2022),312.9
https://www.propertyguru.com.sg/listing/hdb-for-sale-121d-canberra-street-500084853,"S$ 700,000",Clementi,3,2.0,"1,001 sqft",mid floor,,HDB,500084853,121D Canberra Street,754121.0,121D CANBERRA STREET EASTBANK @ CANBERRA SINGAPORE 754121,CANBERRA STREET,1.44703776237182,103.833923460819,CANBERRA MRT STATION,Exit E,596.6117482377992,kml_343,262.3,PEBBLE GARDEN,620.9,Sembawang CC (Pending U/C),768.7
https://www.propertyguru.com.sg/listing/hdb-for-sale-121d-canberra-street-500084853,"S$ 700,000",Clementi,3,2.0,"1,001 sqft",mid floor,,HDB,500084853,121D Canberra Street,754121.0,121D CANBERRA STREET EASTBANK @ CANBERRA SINGAPORE 754121,CANBERRA STREET,1.44703776237182,103.833923460819,CANBERRA MRT STATION,Exit E,596.6117482377992,kml_752,262.3,PEBBLE GARDEN,620.9,Sembawang CC (Pending U/C),768.7
https://www.propertyguru.com.sg/listing/hdb-for-sale-541-hougang-avenue-8-500022895,"S$ 620,000",Clementi,3,2.0,"1,119 sqft",,,HDB,500022895,541 Hougang Avenue 8,530541.0,541 HOUGANG AVENUE 8 SINGAPORE 530541,HOUGANG AVENUE 8,1.37746143213216,103.891272654803,HOUGANG MRT STATION,Exit C,596.6430180314674,kml_208,39.2,PUNGGOL PK,592.1,Punggol CC,346.2
https://www.propertyguru.com.sg/listing/hdb-for-sale-549-hougang-street-51-500031865,"S$ 610,000",Clementi,3,2.0,"1,108 sqft",,,HDB,500031865,549 Hougang Street 51,530549.0,549 HOUGANG STREET 51 SINGAPORE 530549,HOUGANG STREET 51,1.37814103956038,103.891257788208,BUANGKOK MRT STATION,Exit B,558.0726225965918,kml_208,36.1,PUNGGOL PK,611.8,Punggol CC,420.6
https://www.propertyguru.com.sg/listing/hdb-for-sale-200b-sengkang-east-road-500033929,"S$ 690,000",Clementi,3,2.0,"1,184 sqft",,,HDB,500033929,200B Sengkang East Road,542200.0,200B SENGKANG EAST ROAD COMPASSVALE SOUTH GATE SINGAPORE 542200,SENGKANG EAST ROAD,1.3870653779354,103.892735553222,RENJONG LRT STATION,Exit B,256.9034640802513,kml_365,98.0,PUNGGOL PK,1042.5,Buangkok CC (U/C),406.0
https://www.propertyguru.com.sg/listing/hdb-for-sale-425-tampines-street-41-500049891,"S$ 750,000",Clementi,3,2.0,"1,313 sqft",High Floor,,HDB,500049891,425 Tampines Street 41,520425.0,425 TAMPINES STREET 41 SUN PLAZA VIEW SINGAPORE 520425,TAMPINES STREET 41,1.3590599438785,103.94818218974,TAMPINES MRT STATION,Exit D,683.8761182738788,kml_988,211.3,SUN PLAZA PK,191.2,Tampines North CC (U/C),257.0
https://www.propertyguru.com.sg/listing/hdb-for-sale-318c-anchorvale-link-60223979,"S$ 658,888",Clementi,3,2.0,"1,184 sqft",HIGH FLOOR,,HDB,60223979,318C Anchorvale Link,543318.0,318C ANCHORVALE LINK SINGAPORE 543318,ANCHORVALE LINK,1.39333357053438,103.889000192919,FARMWAY LRT STATION,Exit B,422.7231250947132,kml_1051,55.5,SENGKANG RIVERSIDE PK,502.6,Anchorvale CC,493.5
https://www.propertyguru.com.sg/listing/hdb-for-sale-172-bishan-street-13-60238981,"S$ 920,000",Ang Mo Kio,3,2.0,"1,302 sqft",,,HDB,60238981,172 Bishan Street 13,570172.0,172 BISHAN STREET 13 SINGAPORE 570172,BISHAN STREET 13,1.34748317620022,103.85354374139,BISHAN MRT STATION,Exit D,543.7464780749569,kml_1096,236.0,KALLANG LINEAR PARK,330.6,Bishan CC,405.4
https://www.propertyguru.com.sg/listing/hdb-for-sale-172-bishan-street-13-60238981,"S$ 920,000",Ang Mo Kio,3,2.0,"1,302 sqft",,,HDB,60238981,172 Bishan Street 13,570172.0,172 BISHAN STREET 13 SINGAPORE 570172,BISHAN STREET 13,1.34748317620022,103.85354374139,BISHAN MRT STATION,Exit D,543.7464780749569,kml_491,236.0,KALLANG LINEAR PARK,330.6,Bishan CC,405.4
https://www.propertyguru.com.sg/listing/hdb-for-sale-103b-bidadari-park-drive-500082553,"S$ 798,888",Clementi,2,2.0,732 sqft,High Floor,,HDB,500082553,103B Bidadari Park Drive,342103.0,103B BIDADARI PARK DRIVE ALKAFF COURTVIEW SINGAPORE 342103,BIDADARI PARK DRIVE,1.33508945420373,103.871337279805,POTONG PASIR MRT STATION,Exit A,366.3231336809838,kml_265,105.5,GREENWAY SOUTH,46.7,Bidadari CC (U/C),404.3
https://www.propertyguru.com.sg/listing/hdb-for-sale-126-pasir-ris-street-11-500072831,"S$ 699,999",Clementi,4,2.0,"1,420 sqft",High floor,,HDB,500072831,126 Pasir Ris Street 11,510126.0,126 PASIR RIS STREET 11 SINGAPORE 510126,PASIR RIS STREET 11,1.36548783115926,103.955273377381,TAMPINES EAST MRT STATION,Exit D,948.403613014168,kml_481,275.5,TAMPINES ECO GREEN PK,264.2,Pasir Ris East CC,555.2
https://www.propertyguru.com.sg/listing/hdb-for-sale-512a-yishun-street-51-60181760,"S$ 590,000",Clementi,2,2.0,"1,001 sqft",,,HDB,60181760,512A Yishun Street 51,761512.0,512A YISHUN STREET 51 OLEANDER BREEZE @ YISHUN SINGAPORE 761512,YISHUN STREET 51,1.41427715732808,103.841120644288,KHATIB MRT STATION,Exit A,962.3609332900946,kml_598,174.8,LOWER SELETAR RESERVOIR PARK,774.1,Nee Soon South CC (U/C),722.1
https://www.propertyguru.com.sg/listing/hdb-for-sale-476-jurong-west-street-41-60164488,"S$ 418,000",Clementi,3,2.0,785 sqft,,,HDB,60164488,476 Jurong West Street 41,640476.0,476 JURONG WEST STREET 41 JURONGVILLE @ STREET 41 SINGAPORE 640476,JURONG WEST STREET 41,1.34771574253853,103.7241842095,LAKESIDE MRT STATION,Exit C,468.3826593273637,kml_1053,69.7,JLG: LAKESIDE GARDEN,317.7,Jurong Green CC,339.5
https://www.propertyguru.com.sg/listing/hdb-for-sale-476-jurong-west-street-41-60164488,"S$ 418,000",Clementi,3,2.0,785 sqft,,,HDB,60164488,476 Jurong West Street 41,640476.0,476 JURONG WEST STREET 41 JURONGVILLE @ STREET 41 SINGAPORE 640476,JURONG WEST STREET 41,1.34771574253853,103.7241842095,LAKESIDE MRT STATION,Exit C,468.3826593273637,kml_894,69.7,JLG: LAKESIDE GARDEN,317.7,Jurong Green CC,339.5
https://www.propertyguru.com.sg/listing/hdb-for-sale-165b-yung-kuang-court-500082685,"S$ 750,000",Clementi,3,2.0,"1,216 sqft",,,HDB,500082685,165B Yung Kuang Court,612165.0,165B YUNG KUANG ROAD YUNG KUANG COURT SINGAPORE 612165,YUNG KUANG ROAD,1.33064472260389,103.722321863113,LAKESIDE MRT STATION,Exit A,1497.7350500638656,kml_54,191.7,JLG: LAKESIDE GARDEN,296.1,Taman Jurong CC,521.3
https://www.propertyguru.com.sg/listing/hdb-for-sale-165b-yung-kuang-court-500082685,"S$ 750,000",Clementi,3,2.0,"1,216 sqft",,,HDB,500082685,165B Yung Kuang Court,612165.0,165B YUNG KUANG ROAD YUNG KUANG COURT SINGAPORE 612165,YUNG KUANG ROAD,1.33064472260389,103.722321863113,LAKESIDE MRT STATION,Exit A,1497.7350500638656,kml_290,191.7,JLG: LAKESIDE GARDEN,296.1,Taman Jurong CC,521.3
https://www.propertyguru.com.sg/listing/hdb-for-sale-401-sin-ming-avenue-500026382,"S$ 1,150,000",Ang Mo Kio,4,3.0,"1,668 sqft",,,HDB,500026382,401 Sin Ming Avenue,570401.0,401 SIN MING AVENUE SIN MING GARDEN SINGAPORE 570401,SIN MING AVENUE,1.36250549567624,103.833185320675,BRIGHT HILL MRT STATION,Exit 2,93.6886247902526,kml_535,61.6,FULTON AVE PG,31.9,Marymount CC,902.4
https://www.propertyguru.com.sg/listing/hdb-for-sale-335-serangoon-avenue-3-60195733,"S$ 670,000",Clementi,3,2.0,904 sqft,,,HDB,60195733,335 Serangoon Avenue 3,550335.0,335 SERANGOON AVENUE 3 SINGAPORE 550335,SERANGOON AVENUE 3,1.3494422140895,103.871067807837,SERANGOON MRT STATION,Exit F,172.75392631132553,kml_875,200.6,JLN RIANG PG,460.1,Braddell Heights CC (Pending U/C),252.3
https://www.propertyguru.com.sg/listing/hdb-for-sale-335-serangoon-avenue-3-60195733,"S$ 670,000",Clementi,3,2.0,904 sqft,,,HDB,60195733,335 Serangoon Avenue 3,550335.0,335 SERANGOON AVENUE 3 SINGAPORE 550335,SERANGOON AVENUE 3,1.3494422140895,103.871067807837,SERANGOON MRT STATION,Exit F,172.75392631132553,kml_758,200.6,JLN RIANG PG,460.1,Braddell Heights CC (Pending U/C),252.3
https://www.propertyguru.com.sg/listing/hdb-for-sale-627-bedok-reservoir-road-60143639,"S$ 508,000",Bedok,3,2.0,980 sqft,,,HDB,60143639,627 Bedok Reservoir Road,470627.0,627 BEDOK RESERVOIR ROAD EUNOS HEIGHTS SINGAPORE 470627,BEDOK RESERVOIR ROAD,1.33396186689746,103.915599319144,BEDOK NORTH MRT STATION,Exit C,251.0898275862387,kml_16,132.8,BEDOK TOWN PK,354.9,Eunos CC (Pending U/C),163.9
https://www.propertyguru.com.sg/listing/hdb-for-sale-627-bedok-reservoir-road-60143639,"S$ 508,000",Bedok,3,2.0,980 sqft,,,HDB,60143639,627 Bedok Reservoir Road,470627.0,627 BEDOK RESERVOIR ROAD EUNOS HEIGHTS SINGAPORE 470627,BEDOK RESERVOIR ROAD,1.33396186689746,103.915599319144,BEDOK NORTH MRT STATION,Exit C,251.0898275862387,kml_187,132.8,BEDOK TOWN PK,354.9,Eunos CC (Pending U/C),163.9
https://www.propertyguru.com.sg/listing/hdb-for-sale-627-bedok-reservoir-road-60143639,"S$ 508,000",Bedok,3,2.0,980 sqft,,,HDB,60143639,627 Bedok Reservoir Road,470627.0,627 BEDOK RESERVOIR ROAD EUNOS HEIGHTS SINGAPORE 470627,BEDOK RESERVOIR ROAD,1.33396186689746,103.915599319144,BEDOK NORTH MRT STATION,Exit C,251.0898275862387,kml_545,132.8,BEDOK TOWN PK,354.9,Eunos CC (Pending U/C),163.9
https://www.propertyguru.com.sg/listing/hdb-for-sale-92b-telok-blangah-street-31-60117936,"S$ 898,000",Bukit Merah,3,2.0,"1,001 sqft",mid floor,,HDB,60117936,92B Telok Blangah Street 31,102092.0,92B TELOK BLANGAH STREET 31 TELOK BLANGAH PARCVIEW SINGAPORE 102092,TELOK BLANGAH STREET 31,1.27587916988466,103.80732980539,TELOK BLANGAH MRT STATION,Exit A,639.9622834156243,kml_215,272.4,TELOK BLANGAH HILL PARK,232.8,Telok Blangah CC,127.8
https://www.propertyguru.com.sg/listing/hdb-for-sale-805-yishun-ring-road-500053070,"S$ 720,000",Clementi,3,2.0,"1,313 sqft",High Floor,,HDB,500053070,805 Yishun Ring Road,760805.0,805 YISHUN RING ROAD KHATIB GARDENS SINGAPORE 760805,YISHUN RING ROAD,1.41742722691875,103.831588869701,KHATIB MRT STATION,Exit B,128.2003546441381,kml_162,102.7,LOWER SELETAR RESERVOIR PARK,717.7,Nee Soon South CC (U/C),425.9
https://www.propertyguru.com.sg/listing/hdb-for-sale-305a-punggol-road-500035762,"S$ 569,000",Clementi,3,2.0,721 sqft,Mid Floor,,HDB,500035762,305A Punggol Road,821305.0,305A PUNGGOL ROAD TREELODGE@PUNGGOL SINGAPORE 821305,PUNGGOL ROAD,1.40507911812904,103.90670598777,DAMAI LRT STATION,Exit B,212.11339956797903,kml_602,163.1,PUNGGOL WATERWAY PK,159.7,Punggol Vista CC,208.8
https://www.propertyguru.com.sg/listing/hdb-for-sale-876a-tampines-avenue-8-500075940,"S$ 1,000,000",Clementi,3,2.0,"1,216 sqft",,,HDB,500075940,876A Tampines Avenue 8,521876.0,876A TAMPINES AVENUE 8 TAMPINES GREENBLOOM SINGAPORE 521876,TAMPINES AVENUE 8,1.35268035743845,103.929931932805,TAMPINES WEST MRT STATION,Exit A,1207.724464621382,kml_166,168.9,BEDOK RESERVOIR PK,724.7,Tampines West CC,769.0
https://www.propertyguru.com.sg/listing/hdb-for-sale-658-yishun-avenue-4-60176140,"S$ 730,000",Clementi,4,2.0,"1,291 sqft",,,HDB,60176140,658 Yishun Avenue 4,760658.0,658 YISHUN AVENUE 4 NEE SOON CENTRAL VIEW SINGAPORE 760658,YISHUN AVENUE 4,1.42189632203512,103.839487406775,KHATIB MRT STATION,Exit D,827.1689266145263,kml_629,119.4,YISHUN PK,192.7,Nee Soon Central CC,776.9
https://www.propertyguru.com.sg/listing/hdb-for-sale-664a-jurong-west-street-64-500073563,"S$ 630,000",Clementi,3,2.0,979 sqft,high floor,,HDB,500073563,664A Jurong West Street 64,641664.0,664A JURONG WEST STREET 64 SINGAPORE 641664,JURONG WEST STREET 64,1.33920641630237,103.703397452008,BOON LAY MRT STATION,Exit E,230.65199378822516,kml_82,289.3,JURONG CENTRAL PARK,424.0,The Frontier CC,182.5
https://www.propertyguru.com.sg/listing/hdb-for-sale-903-jurong-west-street-91-500035483,"S$ 588,000",Clementi,4,2.0,"1,313 sqft",,,HDB,500035483,903 Jurong West Street 91,640903.0,903 JURONG WEST STREET 91 SINGAPORE 640903,JURONG WEST STREET 91,1.33971747972051,103.68606107405,PIONEER MRT STATION,Exit B,1248.152884608021,kml_610,554.1,YUNNAN PARK,765.6,Nanyang CC,755.6
https://www.propertyguru.com.sg/listing/hdb-for-sale-903-jurong-west-street-91-500035483,"S$ 588,000",Clementi,4,2.0,"1,313 sqft",,,HDB,500035483,903 Jurong West Street 91,640903.0,903 JURONG WEST STREET 91 SINGAPORE 640903,JURONG WEST STREET 91,1.33971747972051,103.68606107405,PIONEER MRT STATION,Exit B,1248.152884608021,kml_251,554.1,YUNNAN PARK,765.6,Nanyang CC,755.6
https://www.propertyguru.com.sg/listing/hdb-for-sale-903-jurong-west-street-91-500035483,"S$ 588,000",Clementi,4,2.0,"1,313 sqft",,,HDB,500035483,903 Jurong West Street 91,640903.0,903 JURONG WEST STREET 91 SINGAPORE 640903,JURONG WEST STREET 91,1.33971747972051,103.68606107405,PIONEER MRT STATION,Exit B,1248.152884608021,kml_288,554.1,YUNNAN PARK,765.6,Nanyang CC,755.6
https://www.propertyguru.com.sg/listing/hdb-for-sale-782b-woodlands-crescent-500028681,"S$ 688,000",Clementi,4,2.0,"1,205 sqft",,,HDB,500028681,782B Woodlands Crescent,732782.0,782B WOODLANDS CRESCENT WOODLANDS MEADOW SINGAPORE 732782,WOODLANDS CRESCENT,1.44746980055218,103.803227069534,ADMIRALTY MRT STATION,Exit D,798.5983097566597,kml_170,260.0,PARK AT SEMBAWANG ALLEY,1726.7,Woodlands Galaxy CC,934.5
https://www.propertyguru.com.sg/listing/hdb-for-sale-226b-sumang-lane-500046252,"S$ 800,000",Clementi,3,2.0,"1,227 sqft",,,HDB,500046252,226B Sumang Lane,822226.0,226B SUMANG LANE THE VERANDAH @ MATILDA SINGAPORE 822226,SUMANG LANE,1.40268497999974,103.893608971394,SOO TECK LRT STATION,Exit A,460.1444451630955,kml_281,120.5,SENGKANG RIVERSIDE PK,513.1,Punggol West CC,305.5
https://www.propertyguru.com.sg/listing/hdb-for-sale-106b-punggol-field-500074220,"S$ 599,999",Clementi,3,2.0,969 sqft,,,HDB,500074220,106B Punggol Field,822106.0,106B PUNGGOL FIELD SINGAPORE 822106,PUNGGOL FIELD,1.39709453228144,103.907955363138,MERIDIAN LRT STATION,Exit B,101.66159619566358,kml_709,69.3,ST ANNE'S WOOD PG,734.4,Punggol Vista CC,688.4
https://www.propertyguru.com.sg/listing/hdb-for-sale-11-marsiling-drive-500043582,"S$ 570,000",Clementi,3,2.0,"1,356 sqft",,,HDB,500043582,11 Marsiling Drive,730011.0,11 MARSILING DRIVE MARSILING GARDENS SINGAPORE 730011,MARSILING DRIVE,1.44039399880253,103.777942285238,MARSILING MRT STATION,Exit B,936.1217482379336,kml_1181,224.4,WOODLANDS TOWN PK EAST,345.0,Marsiling CC (Pending U/C),482.4
https://www.propertyguru.com.sg/listing/hdb-for-sale-124-yishun-street-11-500048820,"S$ 505,888",Clementi,3,2.0,"1,001 sqft",high floor,,HDB,500048820,124 Yishun Street 11,760124.0,124 YISHUN STREET 11 CHONG PANG VIEW SINGAPORE 760124,YISHUN STREET 11,1.43459030044018,103.831139296919,YISHUN MRT STATION,Exit B,689.2145228007556,kml_330,255.8,YISHUN NEIGHBOURHOOD PK,406.1,Chong Pang CC,466.5
https://www.propertyguru.com.sg/listing/hdb-for-sale-125-bukit-merah-view-500064042,"S$ 888,000",Bukit Merah,3,2.0,"1,173 sqft",,,HDB,500064042,125 Bukit Merah View,151125.0,125 BUKIT MERAH VIEW SINGAPORE 151125,BUKIT MERAH VIEW,1.28506119216141,103.823812011597,TIONG BAHRU MRT STATION,Exit A,361.7832724514973,kml_513,253.8,TIONG BAHRU PK,208.9,Henderson CC,118.6
https://www.propertyguru.com.sg/listing/hdb-for-sale-326a-anchorvale-road-60231528,"S$ 690,000",Clementi,3,2.0,990 sqft,10th Floor,,HDB,60231528,326A Anchorvale Road,541326.0,326A ANCHORVALE ROAD ANCHORVALE HORIZON SINGAPORE 541326,ANCHORVALE ROAD,1.39491417297588,103.88800013779,FARMWAY LRT STATION,Exit B,276.1471806255227,kml_711,0.0,SENGKANG RIVERSIDE PK,305.8,Anchorvale CC,286.3
https://www.propertyguru.com.sg/listing/hdb-for-sale-409b-northshore-drive-60184570,"S$ 695,000",Clementi,3,2.0,"1,011 sqft",,,HDB,60184570,409B Northshore Drive,822409.0,409B NORTHSHORE DRIVE NORTHSHORE RESIDENCES II SINGAPORE 822409,NORTHSHORE DRIVE,1.41758014529069,103.902672012959,SAMUDERA LRT STATION,Exit B,189.3438699709956,kml_957,725.6,PUNGGOL WATERWAY PK,565.4,One Punggol CC (U/C),1026.9
https://www.propertyguru.com.sg/listing/hdb-for-sale-472c-fernvale-street-500056582,"S$ 690,000",Clementi,3,2.0,"1,001 sqft",High floor,,HDB,500056582,472C Fernvale Street,793472.0,472C FERNVALE STREET FERNVALE RIVERGROVE SINGAPORE 793472,FERNVALE STREET,1.39631552198212,103.881167314758,KUPANG LRT STATION,Exit B,204.98823178921364,kml_468,170.9,SENGKANG RIVERSIDE PK,143.7,Anchorvale CC,618.5
https://www.propertyguru.com.sg/listing/hdb-for-sale-200b-sengkang-east-road-60196038,"S$ 695,000",Clementi,2,2.0,"1,184 sqft",High Floor,,HDB,60196038,200B Sengkang East Road,542200.0,200B SENGKANG EAST ROAD COMPASSVALE SOUTH GATE SINGAPORE 542200,SENGKANG EAST ROAD,1.3870653779354,103.892735553222,RENJONG LRT STATION,Exit B,256.9034640802513,kml_365,98.0,PUNGGOL PK,1042.5,Buangkok CC (U/C),406.0
https://www.propertyguru.com.sg/listing/hdb-for-sale-293b-bukit-batok-street-21-60143054,"S$ 860,000",Bukit Batok,3,2.0,990 sqft,High floor,,HDB,60143054,293B Bukit Batok Street 21,652293.0,293B BUKIT BATOK STREET 21 SKYPEAK @ BUKIT BATOK SINGAPORE 652293,BUKIT BATOK STREET 21,1.34594925522117,103.754248349899,BUKIT BATOK MRT STATION,Exit B,613.2249189657452,kml_192,207.3,BUKIT BATOK NATURE PARK,756.2,Bukit Batok East CC (U/C),553.0
https://www.propertyguru.com.sg/listing/hdb-for-sale-318b-yishun-greenwalk-500018016,"S$ 635,000",Clementi,3,2.0,990 sqft,,,HDB,500018016,318B Yishun Greenwalk,762318.0,318B YISHUN AVENUE 9 YISHUN GREENWALK SINGAPORE 762318,YISHUN AVENUE 9,1.43367833611169,103.843871260947,YISHUN MRT STATION,Exit E,1017.620816106361,kml_790,177.7,YISHUN POND PK,696.3,Nee Soon East CC,667.3
https://www.propertyguru.com.sg/listing/hdb-for-sale-818-woodlands-street-82-500058002,"S$ 1,195,000",Clementi,5,2.0,"1,905 sqft",,,HDB,500058002,818 Woodlands Street 82,730818.0,818 WOODLANDS STREET 82 SINGAPORE 730818,WOODLANDS STREET 82,1.44166198623146,103.78993000553,WOODLANDS MRT STATION,Exit 4,505.7744570673613,kml_368,138.9,ADMIRALTY PK,514.1,Woodlands CC (Pending U/C),284.9
https://www.propertyguru.com.sg/listing/hdb-for-sale-818-woodlands-street-82-500058002,"S$ 1,195,000",Clementi,5,2.0,"1,905 sqft",,,HDB,500058002,818 Woodlands Street 82,730818.0,818 WOODLANDS STREET 82 SINGAPORE 730818,WOODLANDS STREET 82,1.44166198623146,103.78993000553,WOODLANDS MRT STATION,Exit 4,505.7744570673613,kml_1109,138.9,ADMIRALTY PK,514.1,Woodlands CC (Pending U/C),284.9
https://www.propertyguru.com.sg/listing/hdb-for-sale-818-woodlands-street-82-500058002,"S$ 1,195,000",Clementi,5,2.0,"1,905 sqft",,,HDB,500058002,818 Woodlands Street 82,730818.0,818 WOODLANDS STREET 82 SINGAPORE 730818,WOODLANDS STREET 82,1.44166198623146,103.78993000553,WOODLANDS MRT STATION,Exit 4,505.7744570673613,kml_402,138.9,ADMIRALTY PK,514.1,Woodlands CC (Pending U/C),284.9
https://www.propertyguru.com.sg/listing/hdb-for-sale-828-yishun-street-81-500037748,"S$ 1,060,000",Clementi,4,3.0,"1,571 sqft",High Floor,,HDB,500037748,828 Yishun Street 81,760828.0,828 YISHUN STREET 81 SINGAPORE 760828,YISHUN STREET 81,1.41519092970513,103.832901692682,KHATIB MRT STATION,Exit A,207.64514517006097,kml_162,206.4,LOWER SELETAR RESERVOIR PARK,433.4,Nee Soon South CC (U/C),199.4
https://www.propertyguru.com.sg/listing/hdb-for-sale-161-yishun-street-11-60224552,"S$ 699,000",Clementi,3,2.0,"1,302 sqft",High Floor,,HDB,60224552,161 Yishun Street 11,760161.0,161 YISHUN STREET 11 CHONG PANG VISTA SINGAPORE 760161,YISHUN STREET 11,1.4327862752601,103.833132900961,YISHUN MRT STATION,Exit B,399.7227594296453,kml_809,110.5,YISHUN NEIGHBOURHOOD PK,439.3,Chong Pang CC,484.6
https://www.propertyguru.com.sg/listing/hdb-for-sale-601b-punggol-central-500086765,"S$ 688,000",Clementi,3,2.0,"1,012 sqft",,,HDB,500086765,601B Punggol Central,822601.0,601B PUNGGOL CENTRAL PUNGGOL VISTA SINGAPORE 822601,PUNGGOL CENTRAL,1.40214702207143,103.907831931777,DAMAI LRT STATION,Exit B,333.8677594873342,kml_602,256.4,PUNGGOL WATERWAY PK,456.0,Punggol Vista CC,139.5
https://www.propertyguru.com.sg/listing/hdb-for-sale-669b-edgefield-plains-500084694,"S$ 720,000",Clementi,3,2.0,"1,001 sqft",High Floor,,HDB,500084694,669B Edgefield Plains,822669.0,669B EDGEFIELD PLAINS WATERWAY RIDGES SINGAPORE 822669,EDGEFIELD PLAINS,1.40453606912894,103.914012816111,OASIS LRT STATION,Exit A,271.9912936576413,Punggol Polyclinic,204.6,CONEY ISLAND PARK,675.6,Punggol Vista CC,761.0
https://www.propertyguru.com.sg/listing/hdb-for-sale-212a-punggol-walk-60205884,"S$ 608,888",Clementi,3,2.0,"1,001 sqft",,,HDB,60205884,212A Punggol Walk,821212.0,212A PUNGGOL WALK PUNGGOL WAVES SINGAPORE 821212,PUNGGOL WALK,1.39996056106688,103.898983585947,PUNGGOL LRT STATION,Exit D,588.0687836064056,kml_827,110.4,ST ANNE'S WOOD PG,1027.4,Punggol West CC,624.6
https://www.propertyguru.com.sg/listing/hdb-for-sale-288c-punggol-place-500055486,"S$ 799,000",Clementi,3,2.0,"1,033 sqft",high floor,,HDB,500055486,288C Punggol Place,823288.0,288C PUNGGOL PLACE PUNGGOL ARCADIA SINGAPORE 823288,PUNGGOL PLACE,1.40255090260619,103.903557130195,PUNGGOL LRT STATION,Exit C,252.0517216600404,kml_1009,256.8,PUNGGOL WATERWAY PK,579.4,Punggol Vista CC,423.1
https://www.propertyguru.com.sg/listing/hdb-for-sale-50-lorong-5-toa-payoh-60172502,"S$ 950,000",Clementi,4,2.0,"1,356 sqft",,,HDB,60172502,50 Lorong 5 Toa Payoh,310050.0,50 LORONG 5 TOA PAYOH EAST PAYOH PALM SINGAPORE 310050,LORONG 5 TOA PAYOH,1.33698988933191,103.852692901602,BRADDELL MRT STATION,Exit C,713.1083961987458,kml_1117,149.1,TOA PAYOH TOWN PK,749.4,Toa Payoh East CC (Pending relocation),237.0
