listing_url,price,town,bedrooms,bathrooms,area,floor,tenure,property_type,listing_id,address_from_url,postal_code,onemap_full_address,onemap_road_name,latitude,longitude,nearest_mrt_name,nearest_mrt_exit,nearest_mrt_distance_m,num_mrt_within_1000m,nearest_clinic_name,nearest_clinic_distance_m,nearest_park_name,nearest_park_distance_m,nearest_community_club_name,nearest_community_club_distance_m,nearest_hawker_name,nearest_hawker_distance_m,num_clinic_within_1000m,num_park_within_1000m,num_community_club_within_1000m,num_hawker_within_1000m,num_amenities_within_1000m
https://www.propertyguru.com.sg/listing/hdb-for-sale-903-tampines-avenue-4-60183063,"S$ 880,000",Clementi,3,2,"1,432 sqft",High floor,,HDB,60183063,903 Tampines Avenue 4,520903,903 TAMPINES AVENUE 4 TAMPINES PALMSVILLE SINGAPORE 520903,TAMPINES AVENUE 4,1.350976363,103.9397611,TAMPINES MRT STATION,Exit F,479.8,2,,249.2,SUN PLAZA PK,765.1,Tampines Central CC,278.8,Tampines Street 11 Blk 137 (Tampines Round Market and Food Centre),823,32,1,2,1,36
https://www.propertyguru.com.sg/listing/hdb-for-sale-32-bedok-south-avenue-2-500051307,"S$ 799,999",Bedok,3,2,"1,270 sqft",15th floor,,HDB,500051307,32 Bedok South Avenue 2,460032,32 BEDOK SOUTH AVENUE 2 SINGAPORE 460032,BEDOK SOUTH AVENUE 2,1.322625781,103.9378158,BEDOK MRT STATION,Exit B,924.2,1,,357.5,SENNETT AVE LINEAR PK,382.8,Bedok CC,266.1,Bedok South Road Blk 16,350.9,22,7,5,4,38
https://www.propertyguru.com.sg/listing/hdb-for-sale-32-bedok-south-avenue-2-500051307,"S$ 799,999",Bedok,3,2,"1,270 sqft",15th floor,,HDB,500051307,32 Bedok South Avenue 2,460032,32 BEDOK SOUTH AVENUE 2 SINGAPORE 460032,BEDOK SOUTH AVENUE 2,1.322625781,103.9378158,BEDOK MRT STATION,Exit B,924.2,1,,357.5,SENNETT AVE LINEAR PK,382.8,Bedok CC,266.1,Bedok South Road Blk 16,350.9,22,7,5,4,38
https://www.propertyguru.com.sg/listing/hdb-for-sale-163-bishan-street-13-500073723,"S$ 960,000",Ang Mo Kio,4,2,"1,302 sqft",High floor,,HDB,500073723,163 Bishan Street 13,570163,163 BISHAN STREET 13 SINGAPORE 570163,BISHAN STREET 13,1.348022952,103.856275,BISHAN MRT STATION,Exit D,754.4,2,,318.6,KALLANG LINEAR PARK,139.8,Bishan CC,662.4,Toa Payoh Lorong 8 Blk 210,883.4,14,7,1,1,23
https://www.propertyguru.com.sg/listing/hdb-for-sale-163-bishan-street-13-500073723,"S$ 960,000",Ang Mo Kio,4,2,"1,302 sqft",High floor,,HDB,500073723,163 Bishan Street 13,570163,163 BISHAN STREET 13 SINGAPORE 570163,BISHAN STREET 13,1.348022952,103.856275,BISHAN MRT STATION,Exit D,754.4,2,,318.6,KALLANG LINEAR PARK,139.8,Bishan CC,662.4,Toa Payoh Lorong 8 Blk 210,883.4,14,7,1,1,23
https://www.propertyguru.com.sg/listing/hdb-for-sale-224-jurong-east-street-21-500068835,"S$ 528,000",Bukit Batok,3,2,979 sqft,,,HDB,500068835,224 Jurong East Street 21,600224,224 JURONG EAST STREET 21 SINGAPORE 600224,JURONG EAST STREET 21,1.341714031,103.7367332,CHINESE GARDEN MRT STATION,Exit C,372.1,1,,163.1,JLG: CG MRT TOL LINKWAY,481.5,Yuhua CC,196.1,Jurong East Street 24 Blk 254 (Yuhua Village Market and Food Centre),225.8,22,4,1,2,29
https://www.propertyguru.com.sg/listing/hdb-for-sale-302-clementi-avenue-4-60181859,"S$ 578,000",Clementi,3,2,990 sqft,High floor,,HDB,60181859,302 Clementi Avenue 4,120302,302 CLEMENTI AVENUE 4 CLEMENTI MEADOWS SINGAPORE 120302,CLEMENTI AVENUE 4,1.321738637,103.7649102,CLEMENTI MRT STATION,Exit B,693.9,1,,235.2,SUNSET WAY PG,472.1,Clementi CC,484.6,Clementi Ave 3 Blk 448,932,11,6,1,1,19
https://www.propertyguru.com.sg/listing/hdb-for-sale-94-dawson-road-500041954,"S$ 1,400,000",Bukit Merah,3,2,947 sqft,,,HDB,500041954,94 Dawson Road,141094,94 DAWSON ROAD SKYPARC @ DAWSON SINGAPORE 141094,DAWSON ROAD,1.296274834,103.8112064,QUEENSTOWN MRT STATION,Exit B,585.7,2,,192.7,CAMP ROAD INTERIM PARK,999.6,Leng Kee CC,803,Mei Chin Road Blk 159 (Mei Chin Road Market),983.2,10,0,1,1,12
https://www.propertyguru.com.sg/listing/hdb-for-sale-94-dawson-road-500041954,"S$ 1,400,000",Bukit Merah,3,2,947 sqft,,,HDB,500041954,94 Dawson Road,141094,94 DAWSON ROAD SKYPARC @ DAWSON SINGAPORE 141094,DAWSON ROAD,1.296274834,103.8112064,QUEENSTOWN MRT STATION,Exit B,585.7,2,,192.7,CAMP ROAD INTERIM PARK,999.6,Leng Kee CC,803,Mei Chin Road Blk 159 (Mei Chin Road Market),983.2,10,0,1,1,12
https://www.propertyguru.com.sg/listing/hdb-for-sale-181-jelebu-road-500026081,"S$ 795,000",Bukit Panjang,3,2,"1,012 sqft",,,HDB,500026081,181 Jelebu Road,670181,181 JELEBU ROAD SINGAPORE 670181,JELEBU ROAD,1.379257887,103.7629971,BUKIT PANJANG MRT STATION,Exit A,120.1,7,,93,RAIL CORRIDOR,291.5,Senja-Cashew CC,317.1,Jurong East Street 24 Blk 254 (Yuhua Village Market and Food Centre),4852.4,21,5,2,0,28
https://www.propertyguru.com.sg/listing/hdb-for-sale-18-bedok-south-road-500059721,"S$ 450,000",Bedok,2,1,786 sqft,High Floor,,HDB,500059721,18 Bedok South Road,460018,18 BEDOK SOUTH ROAD SINGAPORE 460018,BEDOK SOUTH ROAD,1.320625049,103.9347342,BEDOK MRT STATION,Exit B,692.5,1,,0,SENNETT AVE LINEAR PK,252,Bedok CC,426.3,Bedok South Road Blk 16,83.4,20,6,4,4,34
https://www.propertyguru.com.sg/listing/hdb-for-sale-226-jurong-east-street-21-500037503,"S$ 680,000",Bukit Batok,3,2,"1,292 sqft",,,HDB,500037503,226 Jurong East Street 21,600226,226 JURONG EAST STREET 21 SINGAPORE 600226,JURONG EAST STREET 21,1.341404713,103.7358435,CHINESE GARDEN MRT STATION,Exit C,273.3,1,,223.4,JLG: CG MRT TOL LINKWAY,389.2,Yuhua CC,208.7,Jurong East Street 24 Blk 254 (Yuhua Village Market and Food Centre),312.3,18,4,2,2,26
https://www.propertyguru.com.sg/listing/hdb-for-sale-706-yishun-avenue-5-60226252,"S$ 528,888",Clementi,3,2,"1,001 sqft",Mid Floor,,HDB,60226252,706 Yishun Avenue 5,760706,706 YISHUN AVENUE 5 CHONG PANG GREEN SINGAPORE 760706,YISHUN AVENUE 5,1.428866921,103.828909,YISHUN MRT STATION,Exit A,656.4,1,,155.1,PLATINA RD PG,323.1,Chong Pang CC,220.3,Yishun Ring Road Blk 104/105 (Chong Pang Market and Food Centre),288.4,24,3,2,1,30
https://www.propertyguru.com.sg/listing/hdb-for-sale-116a-jalan-tenteram-500087239,"S$ 918,000",Clementi,3,2,"1,001 sqft",high floor,,HDB,500087239,116A Jalan Tenteram,321116,116A JALAN TENTERAM TENTERAM PEAK SINGAPORE 321116,JALAN TENTERAM,1.327053125,103.8605584,BOON KENG MRT STATION,Exit A,775.2,1,,61.4,MAR THOMA ROAD PARK,134.6,Whampoa CC,479.5,Whampoa Drive Blk 90 (Whampoa Drive Makan Place/Whampoa Food Centre),760,27,4,3,3,37
https://www.propertyguru.com.sg/listing/hdb-for-sale-512-bedok-north-avenue-2-60216167,"S$ 520,000",Bedok,3,2,990 sqft,,,HDB,60216167,512 Bedok North Avenue 2,460512,512 BEDOK NORTH AVENUE 2 KAKI BUKIT GREEN SINGAPORE 460512,BEDOK NORTH AVENUE 2,1.333367155,103.9291777,BEDOK RESERVOIR MRT STATION,Exit A,528.2,1,,187.4,BEDOK TOWN PK,263.4,Kaki Bukit CC (U/C),259.5,Bedok North Street 3 Blk 511 (Kaki Bukit 511 Market and Food Centre),157.1,28,2,4,4,38
https://www.propertyguru.com.sg/listing/hdb-for-sale-470-sembawang-drive-500093801,"S$ 538,000",Clementi,3,2,969 sqft,High Floor,,HDB,500093801,470 Sembawang Drive,750470,470 SEMBAWANG DRIVE SINGAPORE 750470,SEMBAWANG DRIVE,1.451576162,103.8151574,SEMBAWANG MRT STATION,Exit C,577.7,1,,251.9,PARK AT SEMBAWANG ALLEY,493.1,Canberra CC,867.4,Yishun Ring Road Blk 104/105 (Chong Pang Market and Food Centre),2677.9,11,2,1,0,14
https://www.propertyguru.com.sg/listing/hdb-for-sale-470-sembawang-drive-500093801,"S$ 538,000",Clementi,3,2,969 sqft,High Floor,,HDB,500093801,470 Sembawang Drive,750470,470 SEMBAWANG DRIVE SINGAPORE 750470,SEMBAWANG DRIVE,1.451576162,103.8151574,SEMBAWANG MRT STATION,Exit C,577.7,1,,251.9,PARK AT SEMBAWANG ALLEY,493.1,Canberra CC,867.4,Yishun Ring Road Blk 104/105 (Chong Pang Market and Food Centre),2677.9,11,2,1,0,14
https://www.propertyguru.com.sg/listing/hdb-for-sale-464b-clementi-avenue-1-500071716,"S$ 1,280,000",Clementi,3,2,"1,023 sqft",High Floor,,HDB,500071716,464B Clementi Avenue 1,122464,464B CLEMENTI AVENUE 1 CLEMENTI PEAKS SINGAPORE 122464,CLEMENTI AVENUE 1,1.310137435,103.7679728,CLEMENTI MRT STATION,Exit C,509.2,1,,85.3,TAMAN MAS MERAH PLAYGROUND,359.5,West Coast CC,899.1,Clementi Ave 3 Blk 448,521.3,25,4,2,4,35
https://www.propertyguru.com.sg/listing/hdb-for-sale-211-jurong-east-street-21-60217138,"S$ 400,000",Bukit Batok,2,2,721 sqft,,,HDB,60217138,211 Jurong East Street 21,600211,211 JURONG EAST STREET 21 SINGAPORE 600211,JURONG EAST STREET 21,1.338669111,103.7402925,JURONG EAST MRT STATION,Exit A,542.6,2,,242.3,CHINESE GARDENS,824.1,Yuhua CC,386.9,Jurong East Street 24 Blk 254 (Yuhua Village Market and Food Centre),603.9,21,3,1,1,26
https://www.propertyguru.com.sg/listing/hdb-for-sale-14-dover-close-east-500040733,"S$ 938,000",Bukit Merah,3,2,"1,281 sqft",high floor,,HDB,500040733,14 Dover Close East,130014,14 DOVER CLOSE EAST DOVER HEIGHTS SINGAPORE 130014,DOVER CLOSE EAST,1.305563812,103.7855952,BUONA VISTA MRT STATION,Exit A,573.6,2,,229.7,ONE-NORTH PARK,246.4,Dover CC,423.6,Ghim Moh Road Blk 20,668.5,15,5,3,2,25
https://www.propertyguru.com.sg/listing/hdb-for-sale-588d-ang-mo-kio-street-52-500066200,"S$ 1,180,000",Ang Mo Kio,3,2,980 sqft,,,HDB,500066200,588D Ang Mo Kio Street 52,564588,588D ANG MO KIO STREET 52 PARK CENTRAL @ AMK SINGAPORE 564588,ANG MO KIO STREET 52,1.371754007,103.8538833,ANG MO KIO MRT STATION,Exit D,496.8,1,,97.1,ANG MO KIO TOWN GARDEN EAST,263.6,Cheng San CC (Pending U/C),480,Ang Mo Kio Ave 10 Blk 527 (Cheng San Market and Cooked Food Centre),129.5,29,3,2,3,37
https://www.propertyguru.com.sg/listing/hdb-for-sale-588d-ang-mo-kio-street-52-500066200,"S$ 1,180,000",Ang Mo Kio,3,2,980 sqft,,,HDB,500066200,588D Ang Mo Kio Street 52,564588,588D ANG MO KIO STREET 52 PARK CENTRAL @ AMK SINGAPORE 564588,ANG MO KIO STREET 52,1.371754007,103.8538833,ANG MO KIO MRT STATION,Exit D,496.8,1,,97.1,ANG MO KIO TOWN GARDEN EAST,263.6,Cheng San CC (Pending U/C),480,Ang Mo Kio Ave 10 Blk 527 (Cheng San Market and Cooked Food Centre),129.5,29,3,2,3,37
https://www.propertyguru.com.sg/listing/hdb-for-sale-489-admiralty-link-60208421,"S$ 599,999",Clementi,3,2,"1,033 sqft",High floor,,HDB,60208421,489 Admiralty Link,750489,489 ADMIRALTY LINK SEMBAWANG GREEN SINGAPORE 750489,ADMIRALTY LINK,1.454951192,103.8168198,SEMBAWANG MRT STATION,Exit C,719.4,1,,182.8,PARK AT SEMBAWANG ALLEY,703.1,Canberra CC,1134.6,Yishun Ring Road Blk 104/105 (Chong Pang Market and Food Centre),2907.7,8,2,0,0,10
https://www.propertyguru.com.sg/listing/hdb-for-sale-312-bukit-batok-street-32-500019442,"S$ 430,000",Bukit Batok,2,2,732 sqft,,,HDB,500019442,312 Bukit Batok Street 32,650312,312 BUKIT BATOK STREET 32 SINGAPORE 650312,BUKIT BATOK STREET 32,1.359878751,103.7473357,BUKIT GOMBAK MRT STATION,Exit C,496.9,1,,380,BUKIT BATOK TOWN PARK,696,Hong Kah North CC,252.9,Jurong East Street 24 Blk 254 (Yuhua Village Market and Food Centre),2103.7,14,2,1,0,17
https://www.propertyguru.com.sg/listing/hdb-for-sale-312-bukit-batok-street-32-500019442,"S$ 430,000",Bukit Batok,2,2,732 sqft,,,HDB,500019442,312 Bukit Batok Street 32,650312,312 BUKIT BATOK STREET 32 SINGAPORE 650312,BUKIT BATOK STREET 32,1.359878751,103.7473357,BUKIT GOMBAK MRT STATION,Exit C,496.9,1,,380,BUKIT BATOK TOWN PARK,696,Hong Kah North CC,252.9,Jurong East Street 24 Blk 254 (Yuhua Village Market and Food Centre),2103.7,14,2,1,0,17
https://www.propertyguru.com.sg/listing/hdb-for-sale-67-marine-drive-60216010,"S$ 477,888",Clementi,2,1,700 sqft,Mid floor,,HDB,60216010,67 Marine Drive,440067,67 MARINE DRIVE MARINE DRIVE GARDENS SINGAPORE 440067,MARINE DRIVE,1.304457437,103.9096029,MARINE PARADE MRT STATION,Exit 5,136.5,2,,345.8,MARINE PARADE RD PK,104.7,Marine Parade CC (Pending U/C),41.5,Marine Parade Central Blk 84 (84 Marine Parade Central Market and Food Centre),434.3,12,6,2,2,22
https://www.propertyguru.com.sg/listing/hdb-for-sale-67-marine-drive-60216010,"S$ 477,888",Clementi,2,1,700 sqft,Mid floor,,HDB,60216010,67 Marine Drive,440067,67 MARINE DRIVE MARINE DRIVE GARDENS SINGAPORE 440067,MARINE DRIVE,1.304457437,103.9096029,MARINE PARADE MRT STATION,Exit 5,136.5,2,,345.8,MARINE PARADE RD PK,104.7,Marine Parade CC (Pending U/C),41.5,Marine Parade Central Blk 84 (84 Marine Parade Central Market and Food Centre),434.3,12,6,2,2,22
https://www.propertyguru.com.sg/listing/hdb-for-sale-94-dawson-road-500033976,"S$ 1,299,999",Clementi,3,2,893 sqft,High Floor,,HDB,500033976,94 Dawson Road,141094,94 DAWSON ROAD SKYPARC @ DAWSON SINGAPORE 141094,DAWSON ROAD,1.296274834,103.8112064,QUEENSTOWN MRT STATION,Exit B,585.7,2,,192.7,CAMP ROAD INTERIM PARK,999.6,Leng Kee CC,803,Mei Chin Road Blk 159 (Mei Chin Road Market),983.2,10,0,1,1,12
https://www.propertyguru.com.sg/listing/hdb-for-sale-94-dawson-road-500033976,"S$ 1,299,999",Clementi,3,2,893 sqft,High Floor,,HDB,500033976,94 Dawson Road,141094,94 DAWSON ROAD SKYPARC @ DAWSON SINGAPORE 141094,DAWSON ROAD,1.296274834,103.8112064,QUEENSTOWN MRT STATION,Exit B,585.7,2,,192.7,CAMP ROAD INTERIM PARK,999.6,Leng Kee CC,803,Mei Chin Road Blk 159 (Mei Chin Road Market),983.2,10,0,1,1,12
https://www.propertyguru.com.sg/listing/hdb-for-sale-613-bukit-panjang-ring-road-500093078,"S$ 565,000",Bukit Panjang,3,2,969 sqft,,,HDB,500093078,613 Bukit Panjang Ring Road,670613,613 BUKIT PANJANG RING ROAD SINGAPORE 670613,BUKIT PANJANG RING ROAD,1.384366729,103.7620462,SENJA LRT STATION,Exit A,167.8,8,,166.9,RAIL CORRIDOR,633.1,Senja-Cashew CC,423.2,Jurong East Street 24 Blk 254 (Yuhua Village Market and Food Centre),5267.8,19,1,1,0,21
https://www.propertyguru.com.sg/listing/hdb-for-sale-114-bedok-reservoir-road-60047435,"S$ 999,999",Bedok,4,3,"1,614 sqft",High floor,,HDB,60047435,114 Bedok Reservoir Road,470114,114 BEDOK RESERVOIR ROAD EUNOS VISTA SINGAPORE 470114,BEDOK RESERVOIR ROAD,1.33056066,103.9098389,KAKI BUKIT MRT STATION,Exit B,488.4,2,,84.1,JALAN SINGA PARK,299.1,Eunos CC (Pending U/C),630.1,Bedok Reservoir Road Blk 630,542.6,17,14,2,1,34
https://www.propertyguru.com.sg/listing/hdb-for-sale-49-strathmore-avenue-500040522,"S$ 1,100,000",Bukit Merah,3,2,969 sqft,High floor,,HDB,500040522,49 Strathmore Avenue,140049,49 STRATHMORE AVENUE FORFAR HEIGHTS SINGAPORE 140049,STRATHMORE AVENUE,1.294021643,103.8082128,QUEENSTOWN MRT STATION,Exit B,214.3,1,,224,RAIL CORRIDOR,990.7,Leng Kee CC,837.2,Mei Chin Road Blk 159 (Mei Chin Road Market),597.2,18,1,2,3,24
https://www.propertyguru.com.sg/listing/hdb-for-sale-49-strathmore-avenue-500040522,"S$ 1,100,000",Bukit Merah,3,2,969 sqft,High floor,,HDB,500040522,49 Strathmore Avenue,140049,49 STRATHMORE AVENUE FORFAR HEIGHTS SINGAPORE 140049,STRATHMORE AVENUE,1.294021643,103.8082128,QUEENSTOWN MRT STATION,Exit B,214.3,1,,224,RAIL CORRIDOR,990.7,Leng Kee CC,837.2,Mei Chin Road Blk 159 (Mei Chin Road Market),597.2,18,1,2,3,24
https://www.propertyguru.com.sg/listing/hdb-for-sale-93-paya-lebar-way-60219411,"S$ 300,000",Clementi,2,1,624 sqft,,,HDB,60219411,93 Paya Lebar Way,370093,93 PAYA LEBAR WAY SINGAPORE 370093,PAYA LEBAR WAY,1.322734769,103.8881032,MACPHERSON MRT STATION,Exit D,269.4,5,,201.2,GEYLANG EAST PK,76.8,MacPherson CC,412.7,Aljunied Ave 2 Blk 117 (Blk 117 Aljunied Market and Food Centre),260.3,18,3,1,4,26
https://www.propertyguru.com.sg/listing/for-sale-pinery-residences-60241655,"S$ 3,526,000",Bedok,5,3,"1,475 sqft",,,HDB,60241655,For Sale Pinery Residences,,,,,,,,,,,,,,,,,,,,,,
https://www.propertyguru.com.sg/listing/hdb-for-sale-467-ang-mo-kio-avenue-10-500052274,"S$ 533,000",Ang Mo Kio,3,2,990 sqft,High Floor,,HDB,500052274,467 Ang Mo Kio Avenue 10,560467,467 ANG MO KIO AVENUE 10 TECK GHEE HORIZON SINGAPORE 560467,ANG MO KIO AVENUE 10,1.365391066,103.8568036,ANG MO KIO MRT STATION,Exit A,886.9,1,,211.2,HAUS LINEAR PARK,365.3,Teck Ghee CC,443.9,Ang Mo Kio Ave 10 Blk 453A (Chong Boon Market and Food Centre),319.7,26,4,1,4,35
https://www.propertyguru.com.sg/listing/hdb-for-sale-467-ang-mo-kio-avenue-10-500052274,"S$ 533,000",Ang Mo Kio,3,2,990 sqft,High Floor,,HDB,500052274,467 Ang Mo Kio Avenue 10,560467,467 ANG MO KIO AVENUE 10 TECK GHEE HORIZON SINGAPORE 560467,ANG MO KIO AVENUE 10,1.365391066,103.8568036,ANG MO KIO MRT STATION,Exit A,886.9,1,,211.2,HAUS LINEAR PARK,365.3,Teck Ghee CC,443.9,Ang Mo Kio Ave 10 Blk 453A (Chong Boon Market and Food Centre),319.7,26,4,1,4,35
https://www.propertyguru.com.sg/listing/hdb-for-sale-81-commonwealth-close-23663635,"S$ 350,000",Bukit Batok,2,2,614 sqft,High floor,,HDB,23663635,81 Commonwealth Close,140081,81 COMMONWEALTH CLOSE COMMONWEALTH HEIGHTS SINGAPORE 140081,COMMONWEALTH CLOSE,1.303787444,103.8003853,COMMONWEALTH MRT STATION,Exit C,260.3,2,,310.4,RAIL CORRIDOR,661.6,Queenstown CC,522.9,Commonwealth Crescent Market,344.2,12,2,1,3,18
https://www.propertyguru.com.sg/listing/hdb-for-sale-287d-jurong-east-street-21-500024496,"S$ 1,068,000",Clementi,3,2,"1,561 sqft",high floor,,HDB,500024496,287D Jurong East Street 21,604287,287D JURONG EAST STREET 21 SINGAPORE 604287,JURONG EAST STREET 21,1.337869388,103.7441144,JURONG EAST MRT STATION,Exit A,502.7,1,,318.7,JAPANESE GARDENS,1227.5,Yuhua CC,818.2,Jurong East Street 24 Blk 254 (Yuhua Village Market and Food Centre),943.1,21,0,1,1,23
https://www.propertyguru.com.sg/listing/hdb-for-sale-235-bukit-batok-east-avenue-5-500081350,"S$ 425,000",Bukit Batok,2,2,743 sqft,,,HDB,500081350,235 Bukit Batok East Avenue 5,650235,235 BUKIT BATOK EAST AVENUE 5 GOMBAK GARDENS SINGAPORE 650235,BUKIT BATOK EAST AVENUE 5,1.348483521,103.7563004,BUKIT BATOK MRT STATION,Exit A,714.1,1,,119.7,BUKIT BATOK TOWN PARK,486.4,Bukit Batok East CC (U/C),218.2,Jurong East Street 24 Blk 254 (Yuhua Village Market and Food Centre),2138.3,16,3,2,0,21
https://www.propertyguru.com.sg/listing/hdb-for-sale-235-bukit-batok-east-avenue-5-500081350,"S$ 425,000",Bukit Batok,2,2,743 sqft,,,HDB,500081350,235 Bukit Batok East Avenue 5,650235,235 BUKIT BATOK EAST AVENUE 5 GOMBAK GARDENS SINGAPORE 650235,BUKIT BATOK EAST AVENUE 5,1.348483521,103.7563004,BUKIT BATOK MRT STATION,Exit A,714.1,1,,119.7,BUKIT BATOK TOWN PARK,486.4,Bukit Batok East CC (U/C),218.2,Jurong East Street 24 Blk 254 (Yuhua Village Market and Food Centre),2138.3,16,3,2,0,21
https://www.propertyguru.com.sg/listing/hdb-for-sale-410-commonwealth-avenue-west-60229284,"S$ 638,888",Clementi,3,2,"1,044 sqft",High floor,,HDB,60229284,410 Commonwealth Avenue West,120410,410 COMMONWEALTH AVENUE WEST SINGAPORE 120410,COMMONWEALTH AVENUE WEST,1.311441232,103.769692,CLEMENTI MRT STATION,Exit C,532,2,,215.7,TAMAN MAS MERAH PLAYGROUND,595.4,Clementi CC,833.2,Clementi Ave 2 Blk 353 (Clementi Ave 2 Market/Cooked Food Centre),347.1,22,4,1,2,29
https://www.propertyguru.com.sg/listing/hdb-for-sale-643-ang-mo-kio-avenue-5-500030514,"S$ 440,000",Ang Mo Kio,2,2,807 sqft,Mid Floor,,HDB,500030514,643 Ang Mo Kio Avenue 5,560643,643 ANG MO KIO AVENUE 5 ANG MO KIO 61 SINGAPORE 560643,ANG MO KIO AVENUE 5,1.377506269,103.8405572,MAYFLOWER MRT STATION,Exit 3,558.4,3,,227.7,ANG MO KIO TOWN GARDEN WEST,164.2,Yio Chu Kang CC (Pending U/C),454,Ang Mo Kio Ave 4 Blk 160/162 (Mayflower Market),363.5,26,9,2,3,40
https://www.propertyguru.com.sg/listing/hdb-for-sale-96-bedok-north-avenue-4-500043548,"S$ 725,000",Bedok,3,2,"1,324 sqft",High Floor,,HDB,500043548,96 Bedok North Avenue 4,460096,96 BEDOK NORTH AVENUE 4 SINGAPORE 460096,BEDOK NORTH AVENUE 4,1.333264781,103.9403349,BEDOK RESERVOIR MRT STATION,Exit B,844.5,2,,169.8,JLN PARI DEDAP PG,357.4,Fengshan CC,308.2,Bedok North Street 4 Blk 85 (85 Fengshan Centre),223.2,17,5,2,1,25
https://www.propertyguru.com.sg/listing/hdb-for-sale-96-bedok-north-avenue-4-500043548,"S$ 725,000",Bedok,3,2,"1,324 sqft",High Floor,,HDB,500043548,96 Bedok North Avenue 4,460096,96 BEDOK NORTH AVENUE 4 SINGAPORE 460096,BEDOK NORTH AVENUE 4,1.333264781,103.9403349,BEDOK RESERVOIR MRT STATION,Exit B,844.5,2,,169.8,JLN PARI DEDAP PG,357.4,Fengshan CC,308.2,Bedok North Street 4 Blk 85 (85 Fengshan Centre),223.2,17,5,2,1,25
https://www.propertyguru.com.sg/listing/hdb-for-sale-342-clementi-avenue-5-500066493,"S$ 798,000",Clementi,3,2,"1,302 sqft",10th floor,,HDB,500066493,342 Clementi Avenue 5,120342,342 CLEMENTI AVENUE 5 SINGAPORE 120342,CLEMENTI AVENUE 5,1.318363214,103.7698465,CLEMENTI MRT STATION,Exit B,609.5,1,,112.6,CLEMENTI CRESCENT PG,644.4,Clementi CC,194.9,Clementi Ave 2 Blk 353 (Clementi Ave 2 Market/Cooked Food Centre),453.9,20,2,1,2,25
https://www.propertyguru.com.sg/listing/hdb-for-sale-24-hougang-avenue-3-500066281,"S$ 400,000",Clementi,2,2,721 sqft,,,HDB,500066281,24 Hougang Avenue 3,530024,24 HOUGANG AVENUE 3 SINGAPORE 530024,HOUGANG AVENUE 3,1.365512261,103.8920855,HOUGANG MRT STATION,Exit A,520.8,2,,308.5,REALTY PARK,144.6,Hougang CC,102.6,Hougang Street 21 Blk 209 (Kovan Hougang Market and Food Centre),977.6,15,2,2,1,20
https://www.propertyguru.com.sg/listing/hdb-for-sale-24-hougang-avenue-3-500066281,"S$ 400,000",Clementi,2,2,721 sqft,,,HDB,500066281,24 Hougang Avenue 3,530024,24 HOUGANG AVENUE 3 SINGAPORE 530024,HOUGANG AVENUE 3,1.365512261,103.8920855,HOUGANG MRT STATION,Exit A,520.8,2,,308.5,REALTY PARK,144.6,Hougang CC,102.6,Hougang Street 21 Blk 209 (Kovan Hougang Market and Food Centre),977.6,15,2,2,1,20
https://www.propertyguru.com.sg/listing/hdb-for-sale-43-bedok-south-road-500043474,"S$ 528,000",Bedok,3,1,904 sqft,,,HDB,500043474,43 Bedok South Road,460043,43 BEDOK SOUTH ROAD BEDOK SOUTH PARKVIEW SINGAPORE 460043,BEDOK SOUTH ROAD,1.321541281,103.9415933,TANAH MERAH MRT STATION,Exit A,751.1,2,,242.9,LUCKY GARDENS PG,209.9,Siglap CC,194.3,New Upper Changi Road Blk 58,298.7,13,13,3,2,31
https://www.propertyguru.com.sg/listing/hdb-for-sale-425-canberra-road-25470637,"S$ 600,000",Choa Chu Kang,3,2,"1,184 sqft",High Floor,,HDB,25470637,425 Canberra Road,750425,425 CANBERRA ROAD SINGAPORE 750425,CANBERRA ROAD,1.454378673,103.8186781,SEMBAWANG MRT STATION,Exit C,589.8,1,,122.2,PARK AT SEMBAWANG ALLEY,600.8,Canberra CC,1036,Yishun Ring Road Blk 104/105 (Chong Pang Market and Food Centre),2762.8,9,3,0,0,12
https://www.propertyguru.com.sg/listing/hdb-for-sale-629-hougang-avenue-8-500083206,"S$ 430,000",Ang Mo Kio,2,2,689 sqft,High Floor,,HDB,500083206,629 Hougang Avenue 8,530629,629 HOUGANG AVENUE 8 SINGAPORE 530629,HOUGANG AVENUE 8,1.369954124,103.8812179,KOVAN MRT STATION,Exit B,1146.3,0,,164.1,PK VILLAS TERRACE PG,130.5,Ci Yuan CC,604,Hougang Street 21 Blk 209 (Kovan Hougang Market and Food Centre),1317,28,6,3,0,37
https://www.propertyguru.com.sg/listing/hdb-for-sale-93-whampoa-drive-500053006,"S$ 399,000",Clementi,3,1,700 sqft,High Floor,,HDB,500053006,93 Whampoa Drive,320093,93 WHAMPOA DRIVE WHAMPOA VIEW SINGAPORE 320093,WHAMPOA DRIVE,1.322276067,103.8547999,BOON KENG MRT STATION,Exit A,783.5,2,,115.1,PEK KIO PARK,839.8,Whampoa CC,356.5,Whampoa Drive Blk 90 (Whampoa Drive Makan Place/Whampoa Food Centre),89.9,27,2,2,4,35
https://www.propertyguru.com.sg/listing/hdb-for-sale-93-whampoa-drive-500053006,"S$ 399,000",Clementi,3,1,700 sqft,High Floor,,HDB,500053006,93 Whampoa Drive,320093,93 WHAMPOA DRIVE WHAMPOA VIEW SINGAPORE 320093,WHAMPOA DRIVE,1.322276067,103.8547999,BOON KENG MRT STATION,Exit A,783.5,2,,115.1,PEK KIO PARK,839.8,Whampoa CC,356.5,Whampoa Drive Blk 90 (Whampoa Drive Makan Place/Whampoa Food Centre),89.9,27,2,2,4,35
https://www.propertyguru.com.sg/listing/hdb-for-sale-337-ang-mo-kio-avenue-1-500006443,"S$ 578,888",Ang Mo Kio,3,2,979 sqft,High Floor,,HDB,500006443,337 Ang Mo Kio Avenue 1,560337,337 ANG MO KIO AVENUE 1 TECK GHEE VIEW SINGAPORE 560337,ANG MO KIO AVENUE 1,1.363195557,103.851616,ANG MO KIO MRT STATION,Exit A,717.9,1,,106.6,BISHAN-ANG MO KIO PARK (RIVER PLAINS),220.8,Teck Ghee CC,214,Ang Mo Kio Ave 1 Blk 341 (Teck Ghee Court),388.8,28,4,3,3,38
https://www.propertyguru.com.sg/listing/hdb-for-sale-663b-punggol-drive-500042674,"S$ 638,888",Clementi,3,2,969 sqft,HIGH FLOOR,,HDB,500042674,663B Punggol Drive,822663,663B PUNGGOL DRIVE WATERWAY SUNBEAM SINGAPORE 822663,PUNGGOL DRIVE,1.400771226,103.9173487,KADALOOR LRT STATION,Exit A,150.9,4,,205.4,CONEY ISLAND PARK,790.8,Punggol 21 CC,902.5,Hougang Street 21 Blk 209 (Kovan Hougang Market and Food Centre),5777.2,10,1,1,0,12
https://www.propertyguru.com.sg/listing/hdb-for-sale-383-bukit-batok-west-avenue-5-500086733,"S$ 599,000",Bukit Batok,3,2,969 sqft,High Floor,,HDB,500086733,383 Bukit Batok West Avenue 5,650383,383 BUKIT BATOK WEST AVENUE 5 SINGAPORE 650383,BUKIT BATOK WEST AVENUE 5,1.362323152,103.7522172,BUKIT GOMBAK MRT STATION,Exit D,335.8,1,,154.2,BUKIT BATOK TOWN PARK,148.8,Hong Kah North CC,474,Jurong East Street 24 Blk 254 (Yuhua Village Market and Food Centre),2633.2,8,7,1,0,16
https://www.propertyguru.com.sg/listing/hdb-for-sale-112-mcnair-road-60214421,"S$ 1,090,000",Clementi,2,2,"1,399 sqft",high floor,,HDB,60214421,112 Mcnair Road,320112,112 MCNAIR ROAD MCNAIR SPRING SINGAPORE 320112,MCNAIR ROAD,1.321013495,103.8589824,BOON KENG MRT STATION,Exit A,297.8,3,,292.8,BENG WAN RD PG,724,Whampoa CC,458.8,Bendemeer Road Blk 29 (Bendemeer Market and Food Centre),491.4,27,5,2,3,37
https://www.propertyguru.com.sg/listing/hdb-for-sale-112-mcnair-road-60214421,"S$ 1,090,000",Clementi,2,2,"1,399 sqft",high floor,,HDB,60214421,112 Mcnair Road,320112,112 MCNAIR ROAD MCNAIR SPRING SINGAPORE 320112,MCNAIR ROAD,1.321013495,103.8589824,BOON KENG MRT STATION,Exit A,297.8,3,,292.8,BENG WAN RD PG,724,Whampoa CC,458.8,Bendemeer Road Blk 29 (Bendemeer Market and Food Centre),491.4,27,5,2,3,37
https://www.propertyguru.com.sg/listing/hdb-for-sale-112-mcnair-road-60214421,"S$ 1,090,000",Clementi,2,2,"1,399 sqft",high floor,,HDB,60214421,112 Mcnair Road,320112,112 MCNAIR ROAD MCNAIR SPRING SINGAPORE 320112,MCNAIR ROAD,1.321013495,103.8589824,BOON KENG MRT STATION,Exit A,297.8,3,,292.8,BENG WAN RD PG,724,Whampoa CC,458.8,Bendemeer Road Blk 29 (Bendemeer Market and Food Centre),491.4,27,5,2,3,37
https://www.propertyguru.com.sg/listing/hdb-for-sale-112-mcnair-road-60214421,"S$ 1,090,000",Clementi,2,2,"1,399 sqft",high floor,,HDB,60214421,112 Mcnair Road,320112,112 MCNAIR ROAD MCNAIR SPRING SINGAPORE 320112,MCNAIR ROAD,1.321013495,103.8589824,BOON KENG MRT STATION,Exit A,297.8,3,,292.8,BENG WAN RD PG,724,Whampoa CC,458.8,Bendemeer Road Blk 29 (Bendemeer Market and Food Centre),491.4,27,5,2,3,37
https://www.propertyguru.com.sg/listing/hdb-for-sale-112-mcnair-road-60214421,"S$ 1,090,000",Clementi,2,2,"1,399 sqft",high floor,,HDB,60214421,112 Mcnair Road,320112,112 MCNAIR ROAD MCNAIR SPRING SINGAPORE 320112,MCNAIR ROAD,1.321013495,103.8589824,BOON KENG MRT STATION,Exit A,297.8,3,,292.8,BENG WAN RD PG,724,Whampoa CC,458.8,Bendemeer Road Blk 29 (Bendemeer Market and Food Centre),491.4,27,5,2,3,37
https://www.propertyguru.com.sg/listing/hdb-for-sale-39a-bendemeer-road-60157568,"S$ 918,000",Clementi,3,2,990 sqft,,,HDB,60157568,39A Bendemeer Road,331039,39A BENDEMEER ROAD THE RIVER VISTA @ KALLANG SINGAPORE 331039,BENDEMEER ROAD,1.320179385,103.8663658,BOON KENG MRT STATION,Exit B,507.4,3,,275.3,BENG WAN RD PG,330.1,Kallang CC,516.2,Bendemeer Road Blk 29 (Bendemeer Market and Food Centre),387.2,22,4,3,3,32
https://www.propertyguru.com.sg/listing/hdb-for-sale-353b-admiralty-drive-500082610,"S$ 628,000",Clementi,3,2,"1,001 sqft",High Floor,,HDB,500082610,353B Admiralty Drive,752353,353B ADMIRALTY DRIVE SINGAPORE 752353,ADMIRALTY DRIVE,1.450165067,103.8193068,SEMBAWANG MRT STATION,Exit C,122.3,1,,94.1,PARK AT SEMBAWANG ALLEY,134.8,Canberra CC,566.6,Yishun Ring Road Blk 104/105 (Chong Pang Market and Food Centre),2310.6,12,4,1,0,17
https://www.propertyguru.com.sg/listing/hdb-for-sale-333-ang-mo-kio-avenue-1-500040551,"S$ 429,000",Ang Mo Kio,2,2,721 sqft,High Floor,,HDB,500040551,333 Ang Mo Kio Avenue 1,560333,333 ANG MO KIO AVENUE 1 TECK GHEE VIEW SINGAPORE 560333,ANG MO KIO AVENUE 1,1.361342556,103.8516986,ANG MO KIO MRT STATION,Exit A,919.2,1,,141.5,BISHAN-ANG MO KIO PARK (RIVER PLAINS),67.6,Teck Ghee CC,281.2,Ang Mo Kio Ave 10 Blk 409 (Teck Ghee Square),425,26,4,2,3,35
https://www.propertyguru.com.sg/listing/hdb-for-sale-184-jelebu-road-60217835,"S$ 898,000",Bukit Panjang,3,2,"1,206 sqft",,,HDB,60217835,184 Jelebu Road,670184,184 JELEBU ROAD SINGAPORE 670184,JELEBU ROAD,1.379710958,103.7624401,BUKIT PANJANG MRT STATION,Exit A,96.7,6,,148.5,RAIL CORRIDOR,258.9,Senja-Cashew CC,322.5,Jurong East Street 24 Blk 254 (Yuhua Village Market and Food Centre),4858,17,4,2,0,23
https://www.propertyguru.com.sg/listing/hdb-for-sale-5-ghim-moh-road-500065407,"S$ 428,000",Bukit Merah,2,1,700 sqft,High Floor,,HDB,500065407,5 Ghim Moh Road,270005,5 GHIM MOH ROAD GHIM MOH GREEN SINGAPORE 270005,GHIM MOH ROAD,1.312693106,103.7883088,BUONA VISTA MRT STATION,Exit A,641.2,2,,287.6,RAIL CORRIDOR,101.9,Ulu Pandan CC (U/C),125.7,Ghim Moh Road Blk 20,187.8,15,10,2,3,30
https://www.propertyguru.com.sg/listing/hdb-for-sale-5-ghim-moh-road-500065407,"S$ 428,000",Bukit Merah,2,1,700 sqft,High Floor,,HDB,500065407,5 Ghim Moh Road,270005,5 GHIM MOH ROAD GHIM MOH GREEN SINGAPORE 270005,GHIM MOH ROAD,1.312693106,103.7883088,BUONA VISTA MRT STATION,Exit A,641.2,2,,287.6,RAIL CORRIDOR,101.9,Ulu Pandan CC (U/C),125.7,Ghim Moh Road Blk 20,187.8,15,10,2,3,30
https://www.propertyguru.com.sg/listing/hdb-for-sale-106-jalan-dusun-60043440,"S$ 668,000",Clementi,3,2,"1,001 sqft",,,HDB,60043440,106 Jalan Dusun,320106,106 JALAN DUSUN AH HOOD GARDENS SINGAPORE 320106,JALAN DUSUN,1.328557712,103.8447968,TOA PAYOH MRT STATION,Exit B,518.1,2,,253.2,TOA PAYOH TOWN PK,253.4,Toa Payoh West CC,754.7,Toa Payoh Lorong 4 Blk 74 (Toa Payoh Vista Market),1040.4,34,4,2,0,40
https://www.propertyguru.com.sg/listing/for-sale-pinery-residences-500085377,"S$ 2,722,000",Bedok,4,2,"1,141 sqft",,,HDB,500085377,For Sale Pinery Residences,,,,,,,,,,,,,,,,,,,,,,
https://www.propertyguru.com.sg/listing/for-sale-pinery-residences-500078443,"S$ 1,660,000",Bedok,2,2,700 sqft,,,HDB,500078443,For Sale Pinery Residences,,,,,,,,,,,,,,,,,,,,,,
https://www.propertyguru.com.sg/listing/hdb-for-sale-241-bishan-street-22-24240078,"S$ 878,000",Ang Mo Kio,3,2,"1,248 sqft",2nd floor,,HDB,24240078,241 Bishan Street 22,570241,241 BISHAN STREET 22 SINGAPORE 570241,BISHAN STREET 22,1.360829685,103.8454734,ANG MO KIO MRT STATION,Exit C,1045,0,,226.1,BISHAN-ANG MO KIO PARK (RIVER PLAINS),7.2,Thomson CC (Till 1Q 2022),247.9,Ang Mo Kio Ave 1 Blk 341 (Teck Ghee Court),475.7,16,4,4,3,27
https://www.propertyguru.com.sg/listing/hdb-for-sale-241-bishan-street-22-24240078,"S$ 878,000",Ang Mo Kio,3,2,"1,248 sqft",2nd floor,,HDB,24240078,241 Bishan Street 22,570241,241 BISHAN STREET 22 SINGAPORE 570241,BISHAN STREET 22,1.360829685,103.8454734,ANG MO KIO MRT STATION,Exit C,1045,0,,226.1,BISHAN-ANG MO KIO PARK (RIVER PLAINS),7.2,Thomson CC (Till 1Q 2022),247.9,Ang Mo Kio Ave 1 Blk 341 (Teck Ghee Court),475.7,16,4,4,3,27
https://www.propertyguru.com.sg/listing/hdb-for-sale-241-bishan-street-22-24240078,"S$ 878,000",Ang Mo Kio,3,2,"1,248 sqft",2nd floor,,HDB,24240078,241 Bishan Street 22,570241,241 BISHAN STREET 22 SINGAPORE 570241,BISHAN STREET 22,1.360829685,103.8454734,ANG MO KIO MRT STATION,Exit C,1045,0,,226.1,BISHAN-ANG MO KIO PARK (RIVER PLAINS),7.2,Thomson CC (Till 1Q 2022),247.9,Ang Mo Kio Ave 1 Blk 341 (Teck Ghee Court),475.7,16,4,4,3,27
https://www.propertyguru.com.sg/listing/hdb-for-sale-241-bishan-street-22-24240078,"S$ 878,000",Ang Mo Kio,3,2,"1,248 sqft",2nd floor,,HDB,24240078,241 Bishan Street 22,570241,241 BISHAN STREET 22 SINGAPORE 570241,BISHAN STREET 22,1.360829685,103.8454734,ANG MO KIO MRT STATION,Exit C,1045,0,,226.1,BISHAN-ANG MO KIO PARK (RIVER PLAINS),7.2,Thomson CC (Till 1Q 2022),247.9,Ang Mo Kio Ave 1 Blk 341 (Teck Ghee Court),475.7,16,4,4,3,27
https://www.propertyguru.com.sg/listing/hdb-for-sale-231-bishan-street-23-500092143,"S$ 1,320,000",Ang Mo Kio,3,3,"1,571 sqft",,,HDB,500092143,231 Bishan Street 23,570231,231 BISHAN STREET 23 SINGAPORE 570231,BISHAN STREET 23,1.357291229,103.8458457,BISHAN MRT STATION,Exit B,741.2,1,,217.5,BISHAN-ANG MO KIO PARK (RIVER PLAINS),280.2,Thomson CC (Till 1Q 2022),147.9,Ang Mo Kio Ave 1 Blk 341 (Teck Ghee Court),799.5,13,8,2,1,24
https://www.propertyguru.com.sg/listing/hdb-for-sale-231-bishan-street-23-500092143,"S$ 1,320,000",Ang Mo Kio,3,3,"1,571 sqft",,,HDB,500092143,231 Bishan Street 23,570231,231 BISHAN STREET 23 SINGAPORE 570231,BISHAN STREET 23,1.357291229,103.8458457,BISHAN MRT STATION,Exit B,741.2,1,,217.5,BISHAN-ANG MO KIO PARK (RIVER PLAINS),280.2,Thomson CC (Till 1Q 2022),147.9,Ang Mo Kio Ave 1 Blk 341 (Teck Ghee Court),799.5,13,8,2,1,24
https://www.propertyguru.com.sg/listing/hdb-for-sale-231-bishan-street-23-500092143,"S$ 1,320,000",Ang Mo Kio,3,3,"1,571 sqft",,,HDB,500092143,231 Bishan Street 23,570231,231 BISHAN STREET 23 SINGAPORE 570231,BISHAN STREET 23,1.357291229,103.8458457,BISHAN MRT STATION,Exit B,741.2,1,,217.5,BISHAN-ANG MO KIO PARK (RIVER PLAINS),280.2,Thomson CC (Till 1Q 2022),147.9,Ang Mo Kio Ave 1 Blk 341 (Teck Ghee Court),799.5,13,8,2,1,24
https://www.propertyguru.com.sg/listing/hdb-for-sale-231-bishan-street-23-500092143,"S$ 1,320,000",Ang Mo Kio,3,3,"1,571 sqft",,,HDB,500092143,231 Bishan Street 23,570231,231 BISHAN STREET 23 SINGAPORE 570231,BISHAN STREET 23,1.357291229,103.8458457,BISHAN MRT STATION,Exit B,741.2,1,,217.5,BISHAN-ANG MO KIO PARK (RIVER PLAINS),280.2,Thomson CC (Till 1Q 2022),147.9,Ang Mo Kio Ave 1 Blk 341 (Teck Ghee Court),799.5,13,8,2,1,24
https://www.propertyguru.com.sg/listing/hdb-for-sale-94-dawson-road-500042103,"S$ 1,399,999",Clementi,3,2,947 sqft,,,HDB,500042103,94 Dawson Road,141094,94 DAWSON ROAD SKYPARC @ DAWSON SINGAPORE 141094,DAWSON ROAD,1.296274834,103.8112064,QUEENSTOWN MRT STATION,Exit B,585.7,2,,192.7,CAMP ROAD INTERIM PARK,999.6,Leng Kee CC,803,Mei Chin Road Blk 159 (Mei Chin Road Market),983.2,10,0,1,1,12
https://www.propertyguru.com.sg/listing/hdb-for-sale-94-dawson-road-500042103,"S$ 1,399,999",Clementi,3,2,947 sqft,,,HDB,500042103,94 Dawson Road,141094,94 DAWSON ROAD SKYPARC @ DAWSON SINGAPORE 141094,DAWSON ROAD,1.296274834,103.8112064,QUEENSTOWN MRT STATION,Exit B,585.7,2,,192.7,CAMP ROAD INTERIM PARK,999.6,Leng Kee CC,803,Mei Chin Road Blk 159 (Mei Chin Road Market),983.2,10,0,1,1,12
https://www.propertyguru.com.sg/listing/hdb-for-sale-747c-bedok-reservoir-crescent-500043579,"S$ 937,999",Bedok,3,2,936 sqft,,,HDB,500043579,747C Bedok Reservoir Crescent,473747,747C BEDOK RESERVOIR CRESCENT BELVIA SINGAPORE 473747,BEDOK RESERVOIR CRESCENT,1.336792064,103.9219826,BEDOK NORTH MRT STATION,Exit B,414.8,1,,101.4,BEDOK RESERVOIR PK,203.6,Kaki Bukit CC (U/C),659.7,Bedok North Street 3 Blk 538,599.3,17,2,2,2,23
https://www.propertyguru.com.sg/listing/hdb-for-sale-308-clementi-avenue-4-500071707,"S$ 455,000",Bukit Timah,2,2,721 sqft,,,HDB,500071707,308 Clementi Avenue 4,120308,308 CLEMENTI AVENUE 4 CLEMENTI MEADOWS SINGAPORE 120308,CLEMENTI AVENUE 4,1.32105185,103.7669104,CLEMENTI MRT STATION,Exit B,646.5,1,,0,SUNSET WAY PG,532.8,Clementi CC,283.4,Clementi Ave 2 Blk 353 (Clementi Ave 2 Market/Cooked Food Centre),856.3,19,6,1,2,28
https://www.propertyguru.com.sg/listing/hdb-for-sale-104-whampoa-drive-60064357,"S$ 980,000",Bukit Panjang,2,,"1,281 sqft",High Floor,99-year Leasehold,HDB,60064357,104 Whampoa Drive,323104,104 WHAMPOA DRIVE WHAMPOA VIEW SINGAPORE 323104,WHAMPOA DRIVE,1.320799591,103.8533278,FARRER PARK MRT STATION,Exit B,818.1,3,,148.2,PEK KIO PARK,609.1,Whampoa CC,587.7,Whampoa Drive Blk 91/92 (Whampoa Drive Makan Place/Whampoa Market),301.9,30,2,2,3,37
https://www.propertyguru.com.sg/listing/hdb-for-sale-104-whampoa-drive-60064357,"S$ 980,000",Bukit Panjang,2,,"1,281 sqft",High Floor,99-year Leasehold,HDB,60064357,104 Whampoa Drive,323104,104 WHAMPOA DRIVE WHAMPOA VIEW SINGAPORE 323104,WHAMPOA DRIVE,1.320799591,103.8533278,FARRER PARK MRT STATION,Exit B,818.1,3,,148.2,PEK KIO PARK,609.1,Whampoa CC,587.7,Whampoa Drive Blk 91/92 (Whampoa Drive Makan Place/Whampoa Market),301.9,30,2,2,3,37
https://www.propertyguru.com.sg/listing/hdb-for-sale-504-ang-mo-kio-avenue-8-500080721,"S$ 488,888",Ang Mo Kio,2,2,731 sqft,High floor,,HDB,500080721,504 Ang Mo Kio Avenue 8,560504,504 ANG MO KIO AVENUE 8 CHENG SAN CREST SINGAPORE 560504,ANG MO KIO AVENUE 8,1.374825895,103.8489561,ANG MO KIO MRT STATION,Exit D,555.1,2,,141.3,ANG MO KIO TOWN GARDEN EAST,289.7,Cheng San CC (Pending U/C),343.6,Ang Mo Kio Ave 6 Blk 724 (Blk 724 Ang Mo Kio Market),400.2,26,2,1,2,31
https://www.propertyguru.com.sg/listing/hdb-for-sale-93a-telok-blangah-street-31-500035944,"S$ 960,000",Bukit Merah,3,2,"1,001 sqft",,,HDB,500035944,93A Telok Blangah Street 31,101093,93A TELOK BLANGAH STREET 31 TELOK BLANGAH PARCVIEW SINGAPORE 101093,TELOK BLANGAH STREET 31,1.275328095,103.8073231,TELOK BLANGAH MRT STATION,Exit A,583.7,2,,218.7,TELOK BLANGAH HILL PARK,290.6,Telok Blangah CC,80.2,Telok Blangah Drive Blk 82 (Telok Blangah Market),171.4,13,7,1,2,23
https://www.propertyguru.com.sg/listing/hdb-for-sale-964-hougang-avenue-9-500038164,"S$ 788,000",Clementi,3,2,"1,302 sqft",,,HDB,500038164,964 Hougang Avenue 9,530964,964 HOUGANG AVENUE 9 SINGAPORE 530964,HOUGANG AVENUE 9,1.37715825,103.8775236,TONGKANG LRT STATION,Exit A,1627.6,0,,269.2,LUXUS HILLS PARK,319.1,Hwi Yoh CC,564.1,Chomp Chomp Food Centre,1881.6,18,6,3,0,27
https://www.propertyguru.com.sg/listing/hdb-for-sale-126-geylang-east-avenue-1-60093170,"S$ 790,000",Clementi,3,2,"1,163 sqft",,,HDB,60093170,126 Geylang East Avenue 1,381126,126 GEYLANG EAST AVENUE 1 GEYLANG EAST GROVE SINGAPORE 381126,GEYLANG EAST AVENUE 1,1.317556995,103.8871303,PAYA LEBAR MRT STATION,Exit C,515.1,5,Geylang Polyclinic,214.2,GEYLANG EAST PK,431.6,MacPherson CC,724,Aljunied Ave 2 Blk 117 (Blk 117 Aljunied Market and Food Centre),341.8,19,4,2,4,29
https://www.propertyguru.com.sg/listing/hdb-for-sale-721-pasir-ris-street-72-60143013,"S$ 658,000",Clementi,3,2,"1,356 sqft",,,HDB,60143013,721 Pasir Ris Street 72,510721,721 PASIR RIS STREET 72 SINGAPORE 510721,PASIR RIS STREET 72,1.381462356,103.9363321,PASIR RIS MRT STATION,Exit B,1711.7,0,,200.2,PASIR RIS PK,745.9,Pasir Ris Elias CC,761.6,Tampines Street 11 Blk 137 (Tampines Round Market and Food Centre),4096,7,2,2,0,11
https://www.propertyguru.com.sg/listing/hdb-for-sale-721-pasir-ris-street-72-60143013,"S$ 658,000",Clementi,3,2,"1,356 sqft",,,HDB,60143013,721 Pasir Ris Street 72,510721,721 PASIR RIS STREET 72 SINGAPORE 510721,PASIR RIS STREET 72,1.381462356,103.9363321,PASIR RIS MRT STATION,Exit B,1711.7,0,,200.2,PASIR RIS PK,745.9,Pasir Ris Elias CC,761.6,Tampines Street 11 Blk 137 (Tampines Round Market and Food Centre),4096,7,2,2,0,11
https://www.propertyguru.com.sg/listing/hdb-for-sale-83a-circuit-road-500081351,"S$ 1,125,000",Clementi,3,2,"1,033 sqft",12th floor,,HDB,500081351,83A Circuit Road,371083,83A CIRCUIT ROAD MACPHERSON SPRING SINGAPORE 371083,CIRCUIT ROAD,1.323313504,103.8896103,MACPHERSON MRT STATION,Exit D,239.9,4,,230.2,GEYLANG EAST PK,240.6,MacPherson CC,571.4,Aljunied Ave 2 Blk 117 (Blk 117 Aljunied Market and Food Centre),412.1,16,2,1,4,23
https://www.propertyguru.com.sg/listing/hdb-for-sale-243-bishan-street-22-500058722,"S$ 850,000",Ang Mo Kio,3,2,"1,130 sqft",,,HDB,500058722,243 Bishan Street 22,570243,243 BISHAN STREET 22 SINGAPORE 570243,BISHAN STREET 22,1.36108498,103.8446356,ANG MO KIO MRT STATION,Exit C,1062.1,0,,239.8,BISHAN-ANG MO KIO PARK (RIVER PLAINS),45.7,Thomson CC (Till 1Q 2022),293.2,Ang Mo Kio Ave 1 Blk 341 (Teck Ghee Court),522.3,17,4,3,3,27
https://www.propertyguru.com.sg/listing/hdb-for-sale-243-bishan-street-22-500058722,"S$ 850,000",Ang Mo Kio,3,2,"1,130 sqft",,,HDB,500058722,243 Bishan Street 22,570243,243 BISHAN STREET 22 SINGAPORE 570243,BISHAN STREET 22,1.36108498,103.8446356,ANG MO KIO MRT STATION,Exit C,1062.1,0,,239.8,BISHAN-ANG MO KIO PARK (RIVER PLAINS),45.7,Thomson CC (Till 1Q 2022),293.2,Ang Mo Kio Ave 1 Blk 341 (Teck Ghee Court),522.3,17,4,3,3,27
https://www.propertyguru.com.sg/listing/hdb-for-sale-243-bishan-street-22-500058722,"S$ 850,000",Ang Mo Kio,3,2,"1,130 sqft",,,HDB,500058722,243 Bishan Street 22,570243,243 BISHAN STREET 22 SINGAPORE 570243,BISHAN STREET 22,1.36108498,103.8446356,ANG MO KIO MRT STATION,Exit C,1062.1,0,,239.8,BISHAN-ANG MO KIO PARK (RIVER PLAINS),45.7,Thomson CC (Till 1Q 2022),293.2,Ang Mo Kio Ave 1 Blk 341 (Teck Ghee Court),522.3,17,4,3,3,27
https://www.propertyguru.com.sg/listing/hdb-for-sale-243-bishan-street-22-500058722,"S$ 850,000",Ang Mo Kio,3,2,"1,130 sqft",,,HDB,500058722,243 Bishan Street 22,570243,243 BISHAN STREET 22 SINGAPORE 570243,BISHAN STREET 22,1.36108498,103.8446356,ANG MO KIO MRT STATION,Exit C,1062.1,0,,239.8,BISHAN-ANG MO KIO PARK (RIVER PLAINS),45.7,Thomson CC (Till 1Q 2022),293.2,Ang Mo Kio Ave 1 Blk 341 (Teck Ghee Court),522.3,17,4,3,3,27
https://www.propertyguru.com.sg/listing/hdb-for-sale-242-serangoon-avenue-3-500068805,"S$ 715,000",Clementi,3,2,904 sqft,,,HDB,500068805,242 Serangoon Avenue 3,550242,242 SERANGOON AVENUE 3 SINGAPORE 550242,SERANGOON AVENUE 3,1.352695919,103.869711,SERANGOON MRT STATION,Exit F,273.4,2,,132.1,COLCHESTER GROVE INTERIM OS,519.1,Braddell Heights CC (Pending U/C),140.4,Serangoon Garden Market,1195.9,12,13,1,0,26
https://www.propertyguru.com.sg/listing/hdb-for-sale-181-jelebu-road-500056179,"S$ 795,000",Bukit Panjang,3,2,"1,012 sqft",,,HDB,500056179,181 Jelebu Road,670181,181 JELEBU ROAD SINGAPORE 670181,JELEBU ROAD,1.379257887,103.7629971,BUKIT PANJANG MRT STATION,Exit A,120.1,7,,93,RAIL CORRIDOR,291.5,Senja-Cashew CC,317.1,Jurong East Street 24 Blk 254 (Yuhua Village Market and Food Centre),4852.4,21,5,2,0,28
https://www.propertyguru.com.sg/listing/hdb-for-sale-95-havelock-road-500020498,"S$ 1,040,888",Bukit Merah,3,2,"1,270 sqft",,,HDB,500020498,95 Havelock Road,160095,95 HAVELOCK ROAD HAVELOCK HEIGHTS SINGAPORE 160095,HAVELOCK ROAD,1.288475431,103.8328482,HAVELOCK MRT STATION,Exit 3,70.9,4,,448.8,GANGES AVE OS,242.9,Kim Seng CC,273.2,Havelock Road Blk 22A/B (Havelock Road Cooked Food Centre),363.2,21,5,2,5,33
https://www.propertyguru.com.sg/listing/hdb-for-sale-95-havelock-road-500020498,"S$ 1,040,888",Bukit Merah,3,2,"1,270 sqft",,,HDB,500020498,95 Havelock Road,160095,95 HAVELOCK ROAD HAVELOCK HEIGHTS SINGAPORE 160095,HAVELOCK ROAD,1.288475431,103.8328482,HAVELOCK MRT STATION,Exit 3,70.9,4,,448.8,GANGES AVE OS,242.9,Kim Seng CC,273.2,Havelock Road Blk 22A/B (Havelock Road Cooked Food Centre),363.2,21,5,2,5,33
https://www.propertyguru.com.sg/listing/hdb-for-sale-742-tampines-street-72-60167301,"S$ 630,000",Clementi,3,2,"1,076 sqft",,,HDB,60167301,742 Tampines Street 72,520742,742 TAMPINES STREET 72 TAMPINES GREEN VALE SINGAPORE 520742,TAMPINES STREET 72,1.359588748,103.933361,TAMPINES MRT STATION,Exit E,1114.1,0,,216.4,TAMPINES BOULEVARD PARK,886.3,Tampines Central CC,974.1,Tampines Street 11 Blk 137 (Tampines Round Market and Food Centre),2010.8,12,2,1,0,15
https://www.propertyguru.com.sg/listing/hdb-for-sale-26-bendemeer-road-500090451,"S$ 558,000",Ang Mo Kio,2,2,764 sqft,High floor,,HDB,500090451,26 Bendemeer Road,330026,26 BENDEMEER ROAD BENDEMEER VILLE SINGAPORE 330026,BENDEMEER ROAD,1.318307537,103.8629219,BOON KENG MRT STATION,Exit B,152.8,2,,167,BENG WAN RD PG,579.2,Kallang CC,82.7,Bendemeer Road Blk 29 (Bendemeer Market and Food Centre),101.1,25,5,3,2,35
https://www.propertyguru.com.sg/listing/hdb-for-sale-60-teban-gardens-road-60188365,"S$ 580,000",Clementi,3,2,969 sqft,High floor,,HDB,60188365,60 Teban Gardens Road,600060,60 TEBAN GARDENS ROAD TEBAN GARDENS SINGAPORE 600060,TEBAN GARDENS ROAD,1.322755244,103.7386581,JURONG EAST MRT STATION,Exit B,1167.8,0,,53.4,JLG: LAKESIDE GARDEN,833.1,Ayer Rajah CC,1011.9,Teban Gardens Road Blk 37A (Teban Gardens Market and Food Centre),502.5,3,1,0,1,5
https://www.propertyguru.com.sg/listing/hdb-for-sale-60-teban-gardens-road-60188365,"S$ 580,000",Clementi,3,2,969 sqft,High floor,,HDB,60188365,60 Teban Gardens Road,600060,60 TEBAN GARDENS ROAD TEBAN GARDENS SINGAPORE 600060,TEBAN GARDENS ROAD,1.322755244,103.7386581,JURONG EAST MRT STATION,Exit B,1167.8,0,,53.4,JLG: LAKESIDE GARDEN,833.1,Ayer Rajah CC,1011.9,Teban Gardens Road Blk 37A (Teban Gardens Market and Food Centre),502.5,3,1,0,1,5
https://www.propertyguru.com.sg/listing/hdb-for-sale-207a-punggol-place-60163166,"S$ 850,000",Clementi,3,2,"1,205 sqft",high floor,,HDB,60163166,207A Punggol Place,821207,207A PUNGGOL PLACE PUNGGOL SAILS SINGAPORE 821207,PUNGGOL PLACE,1.400286679,103.9010124,PUNGGOL LRT STATION,Exit C,460.5,9,,214.2,PUNGGOL WATERWAY PK,939.1,Punggol West CC,756.9,Hougang Street 21 Blk 209 (Kovan Hougang Market and Food Centre),4850.5,22,2,2,0,26
https://www.propertyguru.com.sg/listing/hdb-for-sale-165-hougang-avenue-1-500022433,"S$ 639,999",Clementi,3,2,990 sqft,,Freehold,HDB,500022433,165 Hougang Avenue 1,530165,165 HOUGANG AVENUE 1 SINGAPORE 530165,HOUGANG AVENUE 1,1.350254259,103.8877953,KOVAN MRT STATION,Exit C,1111.8,0,,145,PAYA LEBAR CRESCENT OS,472.2,Aljunied CC,524.5,Hougang Ave 1 Blk 105 (Hougang 105 Hainanese Village Centre),496.7,12,9,2,2,25
https://www.propertyguru.com.sg/listing/hdb-for-sale-306-hougang-avenue-5-25596155,"S$ 730,000",Clementi,3,2,"1,442 sqft",,,HDB,25596155,306 Hougang Avenue 5,530306,306 HOUGANG AVENUE 5 SINGAPORE 530306,HOUGANG AVENUE 5,1.367197637,103.8954966,HOUGANG MRT STATION,Exit A,475.5,1,,134.3,JLN NAUNG PG,379,Hougang CC,418.5,Hougang Street 21 Blk 209 (Kovan Hougang Market and Food Centre),1381.6,12,3,2,0,17
https://www.propertyguru.com.sg/listing/hdb-for-sale-530a-pasir-ris-drive-1-500071807,"S$ 838,000",Clementi,3,2,926 sqft,High Floor,,HDB,500071807,530A Pasir Ris Drive 1,511530,530A PASIR RIS DRIVE 1 PASIR RIS ONE SINGAPORE 511530,PASIR RIS DRIVE 1,1.371140539,103.9498505,PASIR RIS MRT STATION,Exit A,196.7,1,,145.5,PASIR RIS TOWN PK,149.4,Pasir Ris East CC,1077.9,Tampines Street 11 Blk 137 (Tampines Round Market and Food Centre),2907.8,10,6,0,0,16
https://www.propertyguru.com.sg/listing/hdb-for-sale-530a-pasir-ris-drive-1-500071807,"S$ 838,000",Clementi,3,2,926 sqft,High Floor,,HDB,500071807,530A Pasir Ris Drive 1,511530,530A PASIR RIS DRIVE 1 PASIR RIS ONE SINGAPORE 511530,PASIR RIS DRIVE 1,1.371140539,103.9498505,PASIR RIS MRT STATION,Exit A,196.7,1,,145.5,PASIR RIS TOWN PK,149.4,Pasir Ris East CC,1077.9,Tampines Street 11 Blk 137 (Tampines Round Market and Food Centre),2907.8,10,6,0,0,16
https://www.propertyguru.com.sg/listing/hdb-for-sale-82a-circuit-road-500036534,"S$ 870,000",Clementi,2,2,732 sqft,High Floor,,HDB,500036534,82A Circuit Road,371082,82A CIRCUIT ROAD MACPHERSON SPRING SINGAPORE 371082,CIRCUIT ROAD,1.324289107,103.8897605,MACPHERSON MRT STATION,Exit C,143.2,4,,204.2,GEYLANG EAST PK,324.5,MacPherson CC,593.4,Circuit Road Blk 89,487.3,15,2,1,4,22
https://www.propertyguru.com.sg/listing/hdb-for-sale-429-clementi-avenue-3-500046834,"S$ 568,000",Clementi,3,2,979 sqft,,,HDB,500046834,429 Clementi Avenue 3,120429,429 CLEMENTI AVENUE 3 SINGAPORE 120429,CLEMENTI AVENUE 3,1.312912189,103.762861,CLEMENTI MRT STATION,Exit D,327.9,1,,123.3,WEST COAST PLACE PLAYGROUND,424.6,Clementi CC,879.2,Clementi Ave 3 Blk 448,189.7,26,6,1,4,37
https://www.propertyguru.com.sg/listing/hdb-for-sale-525c-costa-ris-500045022,"S$ 948,888",Clementi,3,2,"1,216 sqft",High Floor,,HDB,500045022,525C Costa Ris,513525,525C PASIR RIS STREET 51 COSTA RIS SINGAPORE 513525,PASIR RIS STREET 51,1.369960491,103.9474521,PASIR RIS MRT STATION,Exit B,373.9,1,,60.5,TAMPINES ECO GREEN PK,365.5,Pasir Ris Elias CC,1087.9,Tampines Street 11 Blk 137 (Tampines Round Market and Food Centre),2736.8,4,6,0,0,10
https://www.propertyguru.com.sg/listing/hdb-for-sale-154-jalan-teck-whye-60231247,"S$ 700,000",Bukit Panjang,3,2,"1,302 sqft",,,HDB,60231247,154 Jalan Teck Whye,680154,154 JALAN TECK WHYE SINGAPORE 680154,JALAN TECK WHYE,1.379644876,103.757747,PHOENIX LRT STATION,Exit A,127.1,6,,215,RAIL CORRIDOR,276,Chua Chu Kang CC,671.4,Jurong East Street 24 Blk 254 (Yuhua Village Market and Food Centre),4576.3,12,3,2,0,17
https://www.propertyguru.com.sg/listing/hdb-for-sale-607-elias-road-60137554,"S$ 988,000",Clementi,3,2,"1,604 sqft",,,HDB,60137554,607 Elias Road,510607,607 ELIAS ROAD SINGAPORE 510607,ELIAS ROAD,1.376386083,103.9424626,PASIR RIS MRT STATION,Exit B,837.5,1,,250.9,SG API API PK,266.1,Pasir Ris Elias CC,225.9,Tampines Street 11 Blk 137 (Tampines Round Market and Food Centre),3437.7,11,3,2,0,16
https://www.propertyguru.com.sg/listing/hdb-for-sale-607-elias-road-60137554,"S$ 988,000",Clementi,3,2,"1,604 sqft",,,HDB,60137554,607 Elias Road,510607,607 ELIAS ROAD SINGAPORE 510607,ELIAS ROAD,1.376386083,103.9424626,PASIR RIS MRT STATION,Exit B,837.5,1,,250.9,SG API API PK,266.1,Pasir Ris Elias CC,225.9,Tampines Street 11 Blk 137 (Tampines Round Market and Food Centre),3437.7,11,3,2,0,16
https://www.propertyguru.com.sg/listing/hdb-for-sale-607-elias-road-60137554,"S$ 988,000",Clementi,3,2,"1,604 sqft",,,HDB,60137554,607 Elias Road,510607,607 ELIAS ROAD SINGAPORE 510607,ELIAS ROAD,1.376386083,103.9424626,PASIR RIS MRT STATION,Exit B,837.5,1,,250.9,SG API API PK,266.1,Pasir Ris Elias CC,225.9,Tampines Street 11 Blk 137 (Tampines Round Market and Food Centre),3437.7,11,3,2,0,16
https://www.propertyguru.com.sg/listing/hdb-for-sale-607-elias-road-60137554,"S$ 988,000",Clementi,3,2,"1,604 sqft",,,HDB,60137554,607 Elias Road,510607,607 ELIAS ROAD SINGAPORE 510607,ELIAS ROAD,1.376386083,103.9424626,PASIR RIS MRT STATION,Exit B,837.5,1,,250.9,SG API API PK,266.1,Pasir Ris Elias CC,225.9,Tampines Street 11 Blk 137 (Tampines Round Market and Food Centre),3437.7,11,3,2,0,16
https://www.propertyguru.com.sg/listing/hdb-for-sale-211-choa-chu-kang-central-500054635,"S$ 590,000",Bukit Panjang,3,2,"1,130 sqft",High floor,,HDB,500054635,211 Choa Chu Kang Central,680211,211 CHOA CHU KANG CENTRAL SINGAPORE 680211,CHOA CHU KANG CENTRAL,1.381921057,103.7479012,SOUTH VIEW LRT STATION,Exit A,358.5,5,,257.3,CHOA CHU KANG PK,275,Keat Hong CC,407.4,Jurong East Street 24 Blk 254 (Yuhua Village Market and Food Centre),4397.6,17,2,2,0,21
https://www.propertyguru.com.sg/listing/hdb-for-sale-402-admiralty-link-60183196,"S$ 580,000",Choa Chu Kang,3,2,"1,183 sqft",,,HDB,60183196,402 Admiralty Link,750402,402 ADMIRALTY LINK SINGAPORE 750402,ADMIRALTY LINK,1.453890539,103.8157691,SEMBAWANG MRT STATION,Exit C,686.4,1,,171.4,PARK AT SEMBAWANG ALLEY,642.4,Canberra CC,1061.5,Yishun Ring Road Blk 104/105 (Chong Pang Market and Food Centre),2859.6,10,2,0,0,12
https://www.propertyguru.com.sg/listing/hdb-for-sale-402-admiralty-link-60183196,"S$ 580,000",Choa Chu Kang,3,2,"1,183 sqft",,,HDB,60183196,402 Admiralty Link,750402,402 ADMIRALTY LINK SINGAPORE 750402,ADMIRALTY LINK,1.453890539,103.8157691,SEMBAWANG MRT STATION,Exit C,686.4,1,,171.4,PARK AT SEMBAWANG ALLEY,642.4,Canberra CC,1061.5,Yishun Ring Road Blk 104/105 (Chong Pang Market and Food Centre),2859.6,10,2,0,0,12
https://www.propertyguru.com.sg/listing/hdb-for-sale-322-bukit-batok-street-33-60195820,"S$ 508,888",Bukit Batok,3,2,"1,001 sqft",High Floor,,HDB,60195820,322 Bukit Batok Street 33,650322,322 BUKIT BATOK STREET 33 SINGAPORE 650322,BUKIT BATOK STREET 33,1.361667384,103.747725,BUKIT GOMBAK MRT STATION,Exit C,530.2,1,,216.2,BUKIT BATOK TOWN PARK,649.7,Hong Kah North CC,346.9,Jurong East Street 24 Blk 254 (Yuhua Village Market and Food Centre),2296.9,10,3,1,0,14
https://www.propertyguru.com.sg/listing/hdb-for-sale-596a-ang-mo-kio-street-52-500012536,"S$ 1,010,000",Ang Mo Kio,3,2,"1,184 sqft",High Floor,,HDB,500012536,596A Ang Mo Kio Street 52,561596,596A ANG MO KIO STREET 52 CITY VIEW @ CHENG SAN SINGAPORE 561596,ANG MO KIO STREET 52,1.37243024,103.8509492,ANG MO KIO MRT STATION,Exit D,308.3,1,,280.5,ANG MO KIO TOWN GARDEN EAST,71.3,Cheng San CC (Pending U/C),169.5,Ang Mo Kio Ave 10 Blk 527 (Cheng San Market and Cooked Food Centre),392.3,37,2,1,4,44
https://www.propertyguru.com.sg/listing/hdb-for-sale-969-hougang-street-91-500008837,"S$ 628,888",Clementi,3,2,"1,012 sqft",High Floor,,HDB,500008837,969 Hougang Street 91,530969,969 HOUGANG STREET 91 SINGAPORE 530969,HOUGANG STREET 91,1.378759489,103.8794964,TONGKANG LRT STATION,Exit A,1358.5,0,,232.1,LUXUS HILLS PARK,401.9,Ci Yuan CC,549.9,Chomp Chomp Food Centre,2159.5,21,4,2,0,27
https://www.propertyguru.com.sg/listing/hdb-for-sale-339a-sembawang-close-60225745,"S$ 650,000",Clementi,5,2,"1,227 sqft",,,HDB,60225745,339A Sembawang Close,751339,339A SEMBAWANG CLOSE SUN TRELLIS SINGAPORE 751339,SEMBAWANG CLOSE,1.44801536,103.8178809,SEMBAWANG MRT STATION,Exit B,228.2,1,,181.5,PARK AT SEMBAWANG ALLEY,116.7,Canberra CC,373.3,Yishun Ring Road Blk 104/105 (Chong Pang Market and Food Centre),2182.3,11,4,1,0,16
https://www.propertyguru.com.sg/listing/hdb-for-sale-442-fajar-road-60096842,"S$ 673,000",Bukit Panjang,4,2,"1,270 sqft",High floor,,HDB,60096842,442 Fajar Road,670442,442 FAJAR ROAD SINGAPORE 670442,FAJAR ROAD,1.382251153,103.7712357,FAJAR LRT STATION,Exit A,252.6,7,,155.9,ZHENGHUA NATURE PARK,328.3,Zhenghua CC (Pending U/C),504.7,Jurong East Street 24 Blk 254 (Yuhua Village Market and Food Centre),5680.5,17,4,3,0,24
https://www.propertyguru.com.sg/listing/hdb-for-sale-442-fajar-road-60096842,"S$ 673,000",Bukit Panjang,4,2,"1,270 sqft",High floor,,HDB,60096842,442 Fajar Road,670442,442 FAJAR ROAD SINGAPORE 670442,FAJAR ROAD,1.382251153,103.7712357,FAJAR LRT STATION,Exit A,252.6,7,,155.9,ZHENGHUA NATURE PARK,328.3,Zhenghua CC (Pending U/C),504.7,Jurong East Street 24 Blk 254 (Yuhua Village Market and Food Centre),5680.5,17,4,3,0,24
https://www.propertyguru.com.sg/listing/hdb-for-sale-442-fajar-road-60096842,"S$ 673,000",Bukit Panjang,4,2,"1,270 sqft",High floor,,HDB,60096842,442 Fajar Road,670442,442 FAJAR ROAD SINGAPORE 670442,FAJAR ROAD,1.382251153,103.7712357,FAJAR LRT STATION,Exit A,252.6,7,,155.9,ZHENGHUA NATURE PARK,328.3,Zhenghua CC (Pending U/C),504.7,Jurong East Street 24 Blk 254 (Yuhua Village Market and Food Centre),5680.5,17,4,3,0,24
https://www.propertyguru.com.sg/listing/hdb-for-sale-442-fajar-road-60096842,"S$ 673,000",Bukit Panjang,4,2,"1,270 sqft",High floor,,HDB,60096842,442 Fajar Road,670442,442 FAJAR ROAD SINGAPORE 670442,FAJAR ROAD,1.382251153,103.7712357,FAJAR LRT STATION,Exit A,252.6,7,,155.9,ZHENGHUA NATURE PARK,328.3,Zhenghua CC (Pending U/C),504.7,Jurong East Street 24 Blk 254 (Yuhua Village Market and Food Centre),5680.5,17,4,3,0,24
https://www.propertyguru.com.sg/listing/hdb-for-sale-145-bishan-street-11-60222966,"S$ 680,000",Ang Mo Kio,3,2,904 sqft,High Floor,99-year leasehold,HDB,60222966,145 Bishan Street 11,570145,145 BISHAN STREET 11 BISHAN GREEN SINGAPORE 570145,BISHAN STREET 11,1.344886009,103.8542845,BISHAN MRT STATION,Exit D,819.5,2,,94.1,KALLANG LINEAR PARK,529.5,Bishan CC,661.9,Toa Payoh Lorong 8 Blk 210,511.6,19,4,2,3,28
https://www.propertyguru.com.sg/listing/hdb-for-sale-145-bishan-street-11-60222966,"S$ 680,000",Ang Mo Kio,3,2,904 sqft,High Floor,99-year leasehold,HDB,60222966,145 Bishan Street 11,570145,145 BISHAN STREET 11 BISHAN GREEN SINGAPORE 570145,BISHAN STREET 11,1.344886009,103.8542845,BISHAN MRT STATION,Exit D,819.5,2,,94.1,KALLANG LINEAR PARK,529.5,Bishan CC,661.9,Toa Payoh Lorong 8 Blk 210,511.6,19,4,2,3,28
https://www.propertyguru.com.sg/listing/hdb-for-sale-104-potong-pasir-avenue-1-500069474,"S$ 618,000",Clementi,2,2,797 sqft,High Floor,,HDB,500069474,104 Potong Pasir Avenue 1,350104,104 POTONG PASIR AVENUE 1 SINGAPORE 350104,POTONG PASIR AVENUE 1,1.334339169,103.8691589,POTONG PASIR MRT STATION,Exit A,171.4,2,,146.2,GREENWAY SOUTH,109.4,Potong Pasir CC,309.1,Toa Payoh Lorong 7 Blk 22 (Kim Keat Palm Market and Food Centre),1357.7,8,8,2,0,18
https://www.propertyguru.com.sg/listing/hdb-for-sale-365c-sembawang-crescent-500064272,"S$ 515,000",Clementi,2,2,731 sqft,Mid Floor,,HDB,500064272,365C Sembawang Crescent,753365,365C SEMBAWANG CRESCENT SUN BREEZE SINGAPORE 753365,SEMBAWANG CRESCENT,1.443395787,103.8169869,SEMBAWANG MRT STATION,Exit B,671,1,,134.3,LEGUNDI PK,568.4,Canberra CC,331.4,Yishun Ring Road Blk 104/105 (Chong Pang Market and Food Centre),1843.3,7,4,1,0,12
https://www.propertyguru.com.sg/listing/hdb-for-sale-91a-telok-blangah-street-31-60205366,"S$ 965,000",Bukit Merah,3,2,"1,001 sqft",,,HDB,60205366,91A Telok Blangah Street 31,101091,91A TELOK BLANGAH STREET 31 TELOK BLANGAH PARCVIEW SINGAPORE 101091,TELOK BLANGAH STREET 31,1.276661921,103.807128,TELOK BLANGAH MRT STATION,Exit A,725,2,,360.9,TELOK BLANGAH HILL PARK,144,Telok Blangah CC,215.6,Telok Blangah Drive Blk 82 (Telok Blangah Market),318.2,13,6,1,2,22
https://www.propertyguru.com.sg/listing/hdb-for-sale-88-dawson-road-60099670,"S$ 950,000",Clementi,3,2,893 sqft,,,HDB,60099670,88 Dawson Road,142088,88 DAWSON ROAD SKYVILLE @ DAWSON SINGAPORE 142088,DAWSON ROAD,1.29579395,103.8092648,QUEENSTOWN MRT STATION,Exit B,366.4,1,,76,RAIL CORRIDOR,1152.6,Leng Kee CC,879.8,Mei Chin Road Blk 159 (Mei Chin Road Market),762.3,13,0,2,2,17
https://www.propertyguru.com.sg/listing/hdb-for-sale-88-dawson-road-60099670,"S$ 950,000",Clementi,3,2,893 sqft,,,HDB,60099670,88 Dawson Road,142088,88 DAWSON ROAD SKYVILLE @ DAWSON SINGAPORE 142088,DAWSON ROAD,1.29579395,103.8092648,QUEENSTOWN MRT STATION,Exit B,366.4,1,,76,RAIL CORRIDOR,1152.6,Leng Kee CC,879.8,Mei Chin Road Blk 159 (Mei Chin Road Market),762.3,13,0,2,2,17
https://www.propertyguru.com.sg/listing/hdb-for-sale-690d-choa-chu-kang-crescent-60102601,"S$ 580,000",Bukit Batok,3,2,"1,184 sqft",MID FLOOR,,HDB,60102601,690D Choa Chu Kang Crescent,684690,690D CHOA CHU KANG CRESCENT SINGAPORE 684690,CHOA CHU KANG CRESCENT,1.402149787,103.7521016,YEW TEE MRT STATION,Exit B,696.9,1,,719.4,RAIL CORRIDOR,85.4,Yew Tee CC,1145.8,Marsiling Lane Blk 20/21,5338.8,6,2,0,0,8
https://www.propertyguru.com.sg/listing/hdb-for-sale-690d-choa-chu-kang-crescent-60102601,"S$ 580,000",Bukit Batok,3,2,"1,184 sqft",MID FLOOR,,HDB,60102601,690D Choa Chu Kang Crescent,684690,690D CHOA CHU KANG CRESCENT SINGAPORE 684690,CHOA CHU KANG CRESCENT,1.402149787,103.7521016,YEW TEE MRT STATION,Exit B,696.9,1,,719.4,RAIL CORRIDOR,85.4,Limbang CO c/o Yew Tee CC,1145.8,Marsiling Lane Blk 20/21,5338.8,6,2,0,0,8
https://www.propertyguru.com.sg/listing/hdb-for-sale-690d-choa-chu-kang-crescent-60102601,"S$ 580,000",Bukit Batok,3,2,"1,184 sqft",MID FLOOR,,HDB,60102601,690D Choa Chu Kang Crescent,684690,690D CHOA CHU KANG CRESCENT SINGAPORE 684690,CHOA CHU KANG CRESCENT,1.402149787,103.7521016,YEW TEE MRT STATION,Exit B,696.9,1,,719.4,RAIL CORRIDOR,85.4,Yew Tee CC,1145.8,Marsiling Lane Blk 20/21,5338.8,6,2,0,0,8
https://www.propertyguru.com.sg/listing/hdb-for-sale-690d-choa-chu-kang-crescent-60102601,"S$ 580,000",Bukit Batok,3,2,"1,184 sqft",MID FLOOR,,HDB,60102601,690D Choa Chu Kang Crescent,684690,690D CHOA CHU KANG CRESCENT SINGAPORE 684690,CHOA CHU KANG CRESCENT,1.402149787,103.7521016,YEW TEE MRT STATION,Exit B,696.9,1,,719.4,RAIL CORRIDOR,85.4,Limbang CO c/o Yew Tee CC,1145.8,Marsiling Lane Blk 20/21,5338.8,6,2,0,0,8
https://www.propertyguru.com.sg/listing/hdb-for-sale-103a-bidadari-park-drive-500057657,"S$ 800,000",Clementi,2,2,732 sqft,,,HDB,500057657,103A Bidadari Park Drive,341103,103A BIDADARI PARK DRIVE ALKAFF COURTVIEW SINGAPORE 341103,BIDADARI PARK DRIVE,1.335609604,103.8717276,WOODLEIGH MRT STATION,Exit A,332.5,2,,170.5,GREENWAY SOUTH,47.6,Bidadari CC (U/C),345.2,Geylang Bahru Blk 69 (Blk 69 Geylang Bahru Market and Food Centre),1576,11,8,2,0,21
https://www.propertyguru.com.sg/listing/hdb-for-sale-752-woodlands-circle-60198640,"S$ 648,888",Clementi,3,2,"1,302 sqft",High floor,,HDB,60198640,752 Woodlands Circle,730752,752 WOODLANDS CIRCLE SINGAPORE 730752,WOODLANDS CIRCLE,1.44560469,103.7949086,ADMIRALTY MRT STATION,Exit C,836.5,1,,320.1,ADMIRALTY PK,1149.3,Woodlands CC (Pending U/C),986.6,Marsiling Lane Blk 20/21,2006.9,16,0,1,0,17
https://www.propertyguru.com.sg/listing/hdb-for-sale-91a-telok-blangah-street-31-60127662,"S$ 900,000",Bukit Merah,3,2,"1,001 sqft",,,HDB,60127662,91A Telok Blangah Street 31,101091,91A TELOK BLANGAH STREET 31 TELOK BLANGAH PARCVIEW SINGAPORE 101091,TELOK BLANGAH STREET 31,1.276661921,103.807128,TELOK BLANGAH MRT STATION,Exit A,725,2,,360.9,TELOK BLANGAH HILL PARK,144,Telok Blangah CC,215.6,Telok Blangah Drive Blk 82 (Telok Blangah Market),318.2,13,6,1,2,22
https://www.propertyguru.com.sg/listing/hdb-for-sale-128-bukit-merah-view-60230570,"S$ 440,000",Bukit Merah,2,2,699 sqft,High Floor,,HDB,60230570,128 Bukit Merah View,150128,128 BUKIT MERAH VIEW BUKIT MERAH VIEW SINGAPORE 150128,BUKIT MERAH VIEW,1.282646752,103.8233271,TIONG BAHRU MRT STATION,Exit A,533.6,1,,252.5,RAIL CORRIDOR,317.1,Henderson CC,371.9,Bukit Merah View Blk 115 (Blk 115 Bukit Merah View Market and Food Centre),357.6,29,5,4,8,46
https://www.propertyguru.com.sg/listing/for-sale-pinery-residences-500074730,"S$ 1,498,000",Bedok,2,2,624 sqft,,,HDB,500074730,For Sale Pinery Residences,,,,,,,,,,,,,,,,,,,,,,
https://www.propertyguru.com.sg/listing/for-sale-pinery-residences-500074663,"S$ 1,930,000",Bedok,3,3,807 sqft,,,HDB,500074663,For Sale Pinery Residences,,,,,,,,,,,,,,,,,,,,,,
https://www.propertyguru.com.sg/listing/for-sale-pinery-residences-500074724,"S$ 3,508,000",Bedok,5,4,"1,475 sqft",,,HDB,500074724,For Sale Pinery Residences,,,,,,,,,,,,,,,,,,,,,,
https://www.propertyguru.com.sg/listing/hdb-for-sale-104a-bidadari-park-drive-60224895,"S$ 1,148,000",Clementi,3,2,"1,001 sqft",,,HDB,60224895,104A Bidadari Park Drive,341104,104A BIDADARI PARK DRIVE ALKAFF COURTVIEW SINGAPORE 341104,BIDADARI PARK DRIVE,1.335321978,103.870934,WOODLEIGH MRT STATION,Exit A,352.6,2,,135.7,GREENWAY SOUTH,91.9,Bidadari CC (U/C),385.7,Geylang Bahru Blk 69 (Blk 69 Geylang Bahru Market and Food Centre),1535.9,9,7,2,0,18
https://www.propertyguru.com.sg/listing/hdb-for-sale-264-toa-payoh-apex-60180616,"S$ 1,300,000",Clementi,3,2,"1,001 sqft",High Floor,,HDB,60180616,264 Toa Payoh Apex,310264,264 TOA PAYOH EAST TOA PAYOH APEX SINGAPORE 310264,TOA PAYOH EAST,1.332464536,103.8552375,TOA PAYOH MRT STATION,Exit A,836.3,1,,342,TOA PAYOH TOWN PK,645.8,Toa Payoh East CC (Pending relocation),425.6,Toa Payoh Lorong 7 Blk 22 (Kim Keat Palm Market and Food Centre),377.8,29,2,4,5,40
https://www.propertyguru.com.sg/listing/hdb-for-sale-118a-alkaff-crescent-60128045,"S$ 1,048,000",Clementi,3,2,"1,001 sqft",,,HDB,60128045,118A Alkaff Crescent,341118,118A ALKAFF CRESCENT ALKAFF LAKEVIEW SINGAPORE 341118,ALKAFF CRESCENT,1.336490284,103.8737773,WOODLEIGH MRT STATION,Exit A,386.7,3,,135.2,GREENWAY SOUTH,143.5,Bidadari CC (U/C),341.1,Circuit Road Blk 79/79A,1664.7,10,10,2,0,22
https://www.propertyguru.com.sg/listing/hdb-for-sale-532-woodlands-drive-14-60223835,"S$ 689,999",Clementi,4,2,"1,334 sqft",,,HDB,60223835,532 Woodlands Drive 14,730532,532 WOODLANDS DRIVE 14 WOODLANDS VISTA SINGAPORE 730532,WOODLANDS DRIVE 14,1.430800055,103.7923732,WOODLANDS SOUTH MRT STATION,Exit 2,371.8,2,,173.3,WOODLANDS HEALING GARDEN,563.3,ACE The Place CC,366,Marsiling Lane Blk 20/21,2207,13,1,2,0,16
https://www.propertyguru.com.sg/listing/hdb-for-sale-530a-pasir-ris-drive-1-500079942,"S$ 770,000",Clementi,3,2,926 sqft,,,HDB,500079942,530A Pasir Ris Drive 1,511530,530A PASIR RIS DRIVE 1 PASIR RIS ONE SINGAPORE 511530,PASIR RIS DRIVE 1,1.371140539,103.9498505,PASIR RIS MRT STATION,Exit A,196.7,1,,145.5,PASIR RIS TOWN PK,149.4,Pasir Ris East CC,1077.9,Tampines Street 11 Blk 137 (Tampines Round Market and Food Centre),2907.8,10,6,0,0,16
https://www.propertyguru.com.sg/listing/hdb-for-sale-530a-pasir-ris-drive-1-500079942,"S$ 770,000",Clementi,3,2,926 sqft,,,HDB,500079942,530A Pasir Ris Drive 1,511530,530A PASIR RIS DRIVE 1 PASIR RIS ONE SINGAPORE 511530,PASIR RIS DRIVE 1,1.371140539,103.9498505,PASIR RIS MRT STATION,Exit A,196.7,1,,145.5,PASIR RIS TOWN PK,149.4,Pasir Ris East CC,1077.9,Tampines Street 11 Blk 137 (Tampines Round Market and Food Centre),2907.8,10,6,0,0,16
https://www.propertyguru.com.sg/listing/hdb-for-sale-263-tampines-street-21-500066192,"S$ 638,888",Clementi,3,2,"1,152 sqft",,,HDB,500066192,263 Tampines Street 21,520263,263 TAMPINES STREET 21 SINGAPORE 520263,TAMPINES STREET 21,1.35330603,103.9511443,TAMPINES EAST MRT STATION,Exit B,514.2,2,,208.3,SUN PLAZA PK,864,Tampines East CC,386.9,Tampines Street 11 Blk 137 (Tampines Round Market and Food Centre),1138,35,2,3,0,40
https://www.propertyguru.com.sg/listing/hdb-for-sale-263-tampines-street-21-500066192,"S$ 638,888",Clementi,3,2,"1,152 sqft",,,HDB,500066192,263 Tampines Street 21,520263,263 TAMPINES STREET 21 SINGAPORE 520263,TAMPINES STREET 21,1.35330603,103.9511443,TAMPINES EAST MRT STATION,Exit B,514.2,2,,208.3,SUN PLAZA PK,864,Tampines East CC,386.9,Tampines Street 11 Blk 137 (Tampines Round Market and Food Centre),1138,35,2,3,0,40
https://www.propertyguru.com.sg/listing/hdb-for-sale-263-tampines-street-21-500066192,"S$ 638,888",Clementi,3,2,"1,152 sqft",,,HDB,500066192,263 Tampines Street 21,520263,263 TAMPINES STREET 21 SINGAPORE 520263,TAMPINES STREET 21,1.35330603,103.9511443,TAMPINES EAST MRT STATION,Exit B,514.2,2,,208.3,SUN PLAZA PK,864,Tampines East CC,386.9,Tampines Street 11 Blk 137 (Tampines Round Market and Food Centre),1138,35,2,3,0,40
https://www.propertyguru.com.sg/listing/hdb-for-sale-207-tampines-street-21-500076720,"S$ 800,000",Clementi,4,2,"1,431 sqft",,,HDB,500076720,207 Tampines Street 21,520207,207 TAMPINES STREET 21 SINGAPORE 520207,TAMPINES STREET 21,1.351362712,103.9522262,TAMPINES EAST MRT STATION,Exit B,570.6,3,,181.1,JLN PELATOK PG,1012.1,Tampines East CC,345.9,Tampines Street 11 Blk 137 (Tampines Round Market and Food Centre),1073.9,37,0,4,0,41
https://www.propertyguru.com.sg/listing/hdb-for-sale-207-tampines-street-21-500076720,"S$ 800,000",Clementi,4,2,"1,431 sqft",,,HDB,500076720,207 Tampines Street 21,520207,207 TAMPINES STREET 21 SINGAPORE 520207,TAMPINES STREET 21,1.351362712,103.9522262,TAMPINES EAST MRT STATION,Exit B,570.6,3,,181.1,JLN PELATOK PG,1012.1,Tampines East CC,345.9,Tampines Street 11 Blk 137 (Tampines Round Market and Food Centre),1073.9,37,0,4,0,41
https://www.propertyguru.com.sg/listing/hdb-for-sale-207-tampines-street-21-500076720,"S$ 800,000",Clementi,4,2,"1,431 sqft",,,HDB,500076720,207 Tampines Street 21,520207,207 TAMPINES STREET 21 SINGAPORE 520207,TAMPINES STREET 21,1.351362712,103.9522262,TAMPINES EAST MRT STATION,Exit B,570.6,3,,181.1,JLN PELATOK PG,1012.1,Tampines East CC,345.9,Tampines Street 11 Blk 137 (Tampines Round Market and Food Centre),1073.9,37,0,4,0,41
https://www.propertyguru.com.sg/listing/hdb-for-sale-135-potong-pasir-avenue-3-500062293,"S$ 700,000",Clementi,3,2,"1,108 sqft",,,HDB,500062293,135 Potong Pasir Avenue 3,350135,135 POTONG PASIR AVENUE 3 SINGAPORE 350135,POTONG PASIR AVENUE 3,1.334690587,103.8668243,POTONG PASIR MRT STATION,Exit A,317,2,,279.1,GREENWAY SOUTH,372,Potong Pasir CC,239.4,Toa Payoh Lorong 7 Blk 22 (Kim Keat Palm Market and Food Centre),1095.6,8,9,3,0,20
https://www.propertyguru.com.sg/listing/hdb-for-sale-135-potong-pasir-avenue-3-500062293,"S$ 700,000",Clementi,3,2,"1,108 sqft",,,HDB,500062293,135 Potong Pasir Avenue 3,350135,135 POTONG PASIR AVENUE 3 SINGAPORE 350135,POTONG PASIR AVENUE 3,1.334690587,103.8668243,POTONG PASIR MRT STATION,Exit A,317,2,,279.1,GREENWAY SOUTH,372,Potong Pasir CC,239.4,Toa Payoh Lorong 7 Blk 22 (Kim Keat Palm Market and Food Centre),1095.6,8,9,3,0,20
https://www.propertyguru.com.sg/listing/hdb-for-sale-437-fajar-road-60237843,"S$ 530,000",Bukit Panjang,3,2,"1,076 sqft",,,HDB,60237843,437 Fajar Road,670437,437 FAJAR ROAD SINGAPORE 670437,FAJAR ROAD,1.382509573,103.7695481,FAJAR LRT STATION,Exit A,250,9,,143.5,ZHENGHUA NATURE PARK,455.6,Zhenghua CC (Pending U/C),523.4,Jurong East Street 24 Blk 254 (Yuhua Village Market and Food Centre),5581.2,19,3,3,0,25
https://www.propertyguru.com.sg/listing/hdb-for-sale-337-bukit-batok-street-34-60226701,"S$ 490,000",Bukit Batok,3,1,904 sqft,,,HDB,60226701,337 Bukit Batok Street 34,650337,337 BUKIT BATOK STREET 34 SINGAPORE 650337,BUKIT BATOK STREET 34,1.363482964,103.7493934,BUKIT GOMBAK MRT STATION,Exit D,543.3,1,,283,BUKIT GOMBAK PARK,390.2,Hong Kah North CC,489.2,Jurong East Street 24 Blk 254 (Yuhua Village Market and Food Centre),2563.3,8,4,1,0,13
https://www.propertyguru.com.sg/listing/hdb-for-sale-54-havelock-road-500016999,"S$ 840,000",Bukit Merah,2,2,742 sqft,,,HDB,500016999,54 Havelock Road,161054,54 HAVELOCK ROAD HAVELOCK VIEW SINGAPORE 161054,HAVELOCK ROAD,1.289308932,103.8292333,TIONG BAHRU MRT STATION,Exit B,378.9,3,,77.1,GANGES AVE OS,288,Kim Seng CC,169.1,Havelock Road Blk 22A/B (Havelock Road Cooked Food Centre),154.2,20,4,3,5,32
https://www.propertyguru.com.sg/listing/hdb-for-sale-54-havelock-road-500016999,"S$ 840,000",Bukit Merah,2,2,742 sqft,,,HDB,500016999,54 Havelock Road,161054,54 HAVELOCK ROAD HAVELOCK VIEW SINGAPORE 161054,HAVELOCK ROAD,1.289308932,103.8292333,TIONG BAHRU MRT STATION,Exit B,378.9,3,,77.1,GANGES AVE OS,288,Kim Seng CC,169.1,Havelock Road Blk 22A/B (Havelock Road Cooked Food Centre),154.2,20,4,3,5,32
https://www.propertyguru.com.sg/listing/hdb-for-sale-544-pasir-ris-street-51-500052236,"S$ 958,000",Clementi,4,2,"1,550 sqft",,,HDB,500052236,544 Pasir Ris Street 51,510544,544 PASIR RIS STREET 51 SINGAPORE 510544,PASIR RIS STREET 51,1.368981057,103.9521937,PASIR RIS MRT STATION,Exit A,532.5,1,,472.4,PASIR RIS TOWN PK,61.5,Pasir Ris East CC,780.7,Tampines Street 11 Blk 137 (Tampines Round Market and Food Centre),2742.8,16,4,1,0,21
https://www.propertyguru.com.sg/listing/hdb-for-sale-544-pasir-ris-street-51-500052236,"S$ 958,000",Clementi,4,2,"1,550 sqft",,,HDB,500052236,544 Pasir Ris Street 51,510544,544 PASIR RIS STREET 51 SINGAPORE 510544,PASIR RIS STREET 51,1.368981057,103.9521937,PASIR RIS MRT STATION,Exit A,532.5,1,,472.4,PASIR RIS TOWN PK,61.5,Pasir Ris East CC,780.7,Tampines Street 11 Blk 137 (Tampines Round Market and Food Centre),2742.8,16,4,1,0,21
https://www.propertyguru.com.sg/listing/hdb-for-sale-114-clementi-street-13-60211594,"S$ 1,199,000",Bishan,3,3,"1,528 sqft",,,HDB,60211594,114 Clementi Street 13,120114,114 CLEMENTI STREET 13 SUNSET WAY RESIDENCE SINGAPORE 120114,CLEMENTI STREET 13,1.323915477,103.7706295,CLEMENTI MRT STATION,Exit B,1113.3,0,,214.6,CLEMENTI CRESCENT PG,234.8,Clementi CC,627.7,Clementi Ave 2 Blk 353 (Clementi Ave 2 Market/Cooked Food Centre),1055.3,4,4,1,0,9
https://www.propertyguru.com.sg/listing/hdb-for-sale-320-ubi-avenue-1-60214474,"S$ 550,000",Bedok,3,2,904 sqft,,,HDB,60214474,320 Ubi Avenue 1,400320,320 UBI AVENUE 1 KAMPUNG UBI ESTATE SINGAPORE 400320,UBI AVENUE 1,1.328805271,103.9042805,UBI MRT STATION,Exit A,506.2,2,,228.8,JALAN SINGA PARK,340.8,Kampong Kembangan CC (Pending U/C),1126.1,Eunos Crescent Blk 4A,937,13,12,0,1,26
https://www.propertyguru.com.sg/listing/hdb-for-sale-320-ubi-avenue-1-60214474,"S$ 550,000",Bedok,3,2,904 sqft,,,HDB,60214474,320 Ubi Avenue 1,400320,320 UBI AVENUE 1 KAMPUNG UBI ESTATE SINGAPORE 400320,UBI AVENUE 1,1.328805271,103.9042805,UBI MRT STATION,Exit A,506.2,2,,228.8,JALAN SINGA PARK,340.8,Kampong Kembangan CC (Pending U/C),1126.1,Eunos Crescent Blk 4A,937,13,12,0,1,26
https://www.propertyguru.com.sg/listing/hdb-for-sale-27a-jalan-membina-500078014,"S$ 985,000",Bukit Merah,3,2,969 sqft,High Floor,,HDB,500078014,27A Jalan Membina,163027,27A JALAN MEMBINA MEMBINA COURT SINGAPORE 163027,JALAN MEMBINA,1.282218691,103.8245363,TIONG BAHRU MRT STATION,Exit A,477.4,1,,126.6,RAIL CORRIDOR,295,Henderson CC,440.7,Jalan Bukit Merah Blk 112 (Blk 112 Jalan Bukit Merah Market and Food Centre),294.9,30,6,3,9,48
https://www.propertyguru.com.sg/listing/for-sale-pinery-residences-500074711,"S$ 2,722,000",Bedok,4,3,"1,141 sqft",,,HDB,500074711,For Sale Pinery Residences,,,,,,,,,,,,,,,,,,,,,,
https://www.propertyguru.com.sg/listing/hdb-for-sale-608-elias-road-25562337,"S$ 950,000",Clementi,3,2,"1,604 sqft",,,HDB,25562337,608 Elias Road,510608,608 ELIAS ROAD SINGAPORE 510608,ELIAS ROAD,1.375821491,103.9430789,PASIR RIS MRT STATION,Exit B,748.2,1,,331,SG API API PK,264.5,Pasir Ris Elias CC,296.1,Tampines Street 11 Blk 137 (Tampines Round Market and Food Centre),3371.2,11,4,1,0,16
https://www.propertyguru.com.sg/listing/hdb-for-sale-608-elias-road-25562337,"S$ 950,000",Clementi,3,2,"1,604 sqft",,,HDB,25562337,608 Elias Road,510608,608 ELIAS ROAD SINGAPORE 510608,ELIAS ROAD,1.375821491,103.9430789,PASIR RIS MRT STATION,Exit B,748.2,1,,331,SG API API PK,264.5,Pasir Ris Elias CC,296.1,Tampines Street 11 Blk 137 (Tampines Round Market and Food Centre),3371.2,11,4,1,0,16
https://www.propertyguru.com.sg/listing/hdb-for-sale-608-elias-road-25562337,"S$ 950,000",Clementi,3,2,"1,604 sqft",,,HDB,25562337,608 Elias Road,510608,608 ELIAS ROAD SINGAPORE 510608,ELIAS ROAD,1.375821491,103.9430789,PASIR RIS MRT STATION,Exit B,748.2,1,,331,SG API API PK,264.5,Pasir Ris Elias CC,296.1,Tampines Street 11 Blk 137 (Tampines Round Market and Food Centre),3371.2,11,4,1,0,16
https://www.propertyguru.com.sg/listing/hdb-for-sale-608-elias-road-25562337,"S$ 950,000",Clementi,3,2,"1,604 sqft",,,HDB,25562337,608 Elias Road,510608,608 ELIAS ROAD SINGAPORE 510608,ELIAS ROAD,1.375821491,103.9430789,PASIR RIS MRT STATION,Exit B,748.2,1,,331,SG API API PK,264.5,Pasir Ris Elias CC,296.1,Tampines Street 11 Blk 137 (Tampines Round Market and Food Centre),3371.2,11,4,1,0,16
https://www.propertyguru.com.sg/listing/hdb-for-sale-217-bishan-street-23-60027295,"S$ 850,000",Ang Mo Kio,3,2,"1,108 sqft",High Floor,,HDB,60027295,217 Bishan Street 23,570217,217 BISHAN STREET 23 SINGAPORE 570217,BISHAN STREET 23,1.356740015,103.8493295,BISHAN MRT STATION,Exit D,636.3,1,,139.6,BISHAN-ANG MO KIO PARK (RIVER PLAINS),67.2,Thomson CC (Till 1Q 2022),470.4,Ang Mo Kio Ave 1 Blk 341 (Teck Ghee Court),823.6,20,5,3,2,30
https://www.propertyguru.com.sg/listing/hdb-for-sale-111-pasir-ris-street-11-24437397,"S$ 870,000",Clementi,4,3,"1,561 sqft",,,HDB,24437397,111 Pasir Ris Street 11,510111,111 PASIR RIS STREET 11 SINGAPORE 510111,PASIR RIS STREET 11,1.36805792,103.9563785,PASIR RIS MRT STATION,Exit A,945.8,1,,200,PASIR RIS TOWN PK,318.5,Pasir Ris East CC,319.2,Tampines Street 11 Blk 137 (Tampines Round Market and Food Centre),2828.7,21,3,1,0,25
https://www.propertyguru.com.sg/listing/hdb-for-sale-204-serangoon-central-500075813,"S$ 650,000",Clementi,2,2,904 sqft,,,HDB,500075813,204 Serangoon Central,550204,204 SERANGOON CENTRAL SINGAPORE 550204,SERANGOON CENTRAL,1.352438279,103.8732981,SERANGOON MRT STATION,Exit E,184.3,2,,134.2,UPPER SERANGOON PARK,217.8,Braddell Heights CC (Pending U/C),338.7,Serangoon Garden Market,1386,14,9,1,0,24
https://www.propertyguru.com.sg/listing/hdb-for-sale-619-woodlands-drive-52-500031202,"S$ 559,000",Clementi,3,2,"1,022 sqft",11th Floor,,HDB,500031202,619 Woodlands Drive 52,730619,619 WOODLANDS DRIVE 52 SINGAPORE 730619,WOODLANDS DRIVE 52,1.433436771,103.7980554,WOODLANDS SOUTH MRT STATION,Exit 3,770,2,,242.3,WOODLANDS HEALING GARDEN,1016.1,Woodlands Galaxy CC,800.7,Marsiling Lane Blk 20/21,2589.4,13,0,2,0,15
https://www.propertyguru.com.sg/listing/hdb-for-sale-103-jalan-rajah-500072456,"S$ 1,028,000",Clementi,3,2,"1,453 sqft",HIGH FLOOR,,HDB,500072456,103 Jalan Rajah,321103,103 JALAN RAJAH SINGAPORE 321103,JALAN RAJAH,1.327341433,103.8527807,TOA PAYOH MRT STATION,Exit A,791.6,1,,320,TOA PAYOH TOWN PK,454.9,Whampoa CC,554.6,Whampoa Drive Blk 91/92 (Whampoa Drive Makan Place/Whampoa Market),455.5,25,1,2,4,32
https://www.propertyguru.com.sg/listing/hdb-for-sale-788c-woodlands-crescent-500004453,"S$ 838,000",Clementi,4,3,"1,539 sqft",,,HDB,500004453,788C Woodlands Crescent,733788,788C WOODLANDS CRESCENT SINGAPORE 733788,WOODLANDS CRESCENT,1.443871798,103.8018334,ADMIRALTY MRT STATION,Exit D,372.8,1,,358.2,ADMIRALTY PK,1853.3,Woodlands Galaxy CC,541.1,Marsiling Lane Blk 20/21,2763.4,14,0,1,0,15
https://www.propertyguru.com.sg/listing/hdb-for-sale-680a-jurong-west-central-1-500039762,"S$ 820,000",Clementi,4,2,"1,442 sqft",High Floor,,HDB,500039762,680A Jurong West Central 1,641680,680A JURONG WEST CENTRAL 1 SINGAPORE 641680,JURONG WEST CENTRAL 1,1.344623934,103.7055601,BOON LAY MRT STATION,Exit C,652.3,1,,242.4,JURONG CENTRAL PARK,612.2,The Frontier CC,475.6,Boon Lay Place Blk 221A/B (Boon Lay Place Market and Food Village),808.5,22,2,3,1,28
https://www.propertyguru.com.sg/listing/hdb-for-sale-231-bukit-batok-east-avenue-5-60210817,"S$ 400,000",Bukit Batok,2,2,721 sqft,,,HDB,60210817,231 Bukit Batok East Avenue 5,650231,231 BUKIT BATOK EAST AVENUE 5 GOMBAK GARDENS SINGAPORE 650231,BUKIT BATOK EAST AVENUE 5,1.34908255,103.7545182,BUKIT BATOK MRT STATION,Exit A,508.5,1,,305.8,BUKIT BATOK TOWN PARK,417.1,Bukit Batok East CC (U/C),409.4,Jurong East Street 24 Blk 254 (Yuhua Village Market and Food Centre),1967.2,17,3,2,0,22
https://www.propertyguru.com.sg/listing/hdb-for-sale-685b-choa-chu-kang-crescent-500061663,"S$ 560,000",Bukit Panjang,3,2,"1,184 sqft",,,HDB,500061663,685B Choa Chu Kang Crescent,682685,685B CHOA CHU KANG CRESCENT SINGAPORE 682685,CHOA CHU KANG CRESCENT,1.403637377,103.7481769,YEW TEE MRT STATION,Exit B,623,1,,630,RAIL CORRIDOR,551.7,Yew Tee CC,1037.8,Marsiling Lane Blk 20/21,5444.3,6,1,0,0,7
https://www.propertyguru.com.sg/listing/hdb-for-sale-685b-choa-chu-kang-crescent-500061663,"S$ 560,000",Bukit Panjang,3,2,"1,184 sqft",,,HDB,500061663,685B Choa Chu Kang Crescent,682685,685B CHOA CHU KANG CRESCENT SINGAPORE 682685,CHOA CHU KANG CRESCENT,1.403637377,103.7481769,YEW TEE MRT STATION,Exit B,623,1,,630,RAIL CORRIDOR,551.7,Limbang CO c/o Yew Tee CC,1037.8,Marsiling Lane Blk 20/21,5444.3,6,1,0,0,7
https://www.propertyguru.com.sg/listing/hdb-for-sale-685b-choa-chu-kang-crescent-500061663,"S$ 560,000",Bukit Panjang,3,2,"1,184 sqft",,,HDB,500061663,685B Choa Chu Kang Crescent,682685,685B CHOA CHU KANG CRESCENT SINGAPORE 682685,CHOA CHU KANG CRESCENT,1.403637377,103.7481769,YEW TEE MRT STATION,Exit B,623,1,,630,RAIL CORRIDOR,551.7,Yew Tee CC,1037.8,Marsiling Lane Blk 20/21,5444.3,6,1,0,0,7
https://www.propertyguru.com.sg/listing/hdb-for-sale-685b-choa-chu-kang-crescent-500061663,"S$ 560,000",Bukit Panjang,3,2,"1,184 sqft",,,HDB,500061663,685B Choa Chu Kang Crescent,682685,685B CHOA CHU KANG CRESCENT SINGAPORE 682685,CHOA CHU KANG CRESCENT,1.403637377,103.7481769,YEW TEE MRT STATION,Exit B,623,1,,630,RAIL CORRIDOR,551.7,Limbang CO c/o Yew Tee CC,1037.8,Marsiling Lane Blk 20/21,5444.3,6,1,0,0,7
https://www.propertyguru.com.sg/listing/hdb-for-sale-261-bishan-street-22-500076082,"S$ 1,450,000",Ang Mo Kio,4,3,"1,571 sqft",,,HDB,500076082,261 Bishan Street 22,570261,261 BISHAN STREET 22 SINGAPORE 570261,BISHAN STREET 22,1.358986893,103.8433244,BISHAN MRT STATION,Exit B,1037.1,0,,158.7,BISHAN-ANG MO KIO PARK (RIVER PLAINS),317.5,Thomson CC (Till 1Q 2022),248.6,Ang Mo Kio Ave 1 Blk 341 (Teck Ghee Court),787.5,14,6,3,3,26
https://www.propertyguru.com.sg/listing/hdb-for-sale-261-bishan-street-22-500076082,"S$ 1,450,000",Ang Mo Kio,4,3,"1,571 sqft",,,HDB,500076082,261 Bishan Street 22,570261,261 BISHAN STREET 22 SINGAPORE 570261,BISHAN STREET 22,1.358986893,103.8433244,BISHAN MRT STATION,Exit B,1037.1,0,,158.7,BISHAN-ANG MO KIO PARK (RIVER PLAINS),317.5,Thomson CC (Till 1Q 2022),248.6,Ang Mo Kio Ave 1 Blk 341 (Teck Ghee Court),787.5,14,6,3,3,26
https://www.propertyguru.com.sg/listing/hdb-for-sale-261-bishan-street-22-500076082,"S$ 1,450,000",Ang Mo Kio,4,3,"1,571 sqft",,,HDB,500076082,261 Bishan Street 22,570261,261 BISHAN STREET 22 SINGAPORE 570261,BISHAN STREET 22,1.358986893,103.8433244,BISHAN MRT STATION,Exit B,1037.1,0,,158.7,BISHAN-ANG MO KIO PARK (RIVER PLAINS),317.5,Thomson CC (Till 1Q 2022),248.6,Ang Mo Kio Ave 1 Blk 341 (Teck Ghee Court),787.5,14,6,3,3,26
https://www.propertyguru.com.sg/listing/hdb-for-sale-261-bishan-street-22-500076082,"S$ 1,450,000",Ang Mo Kio,4,3,"1,571 sqft",,,HDB,500076082,261 Bishan Street 22,570261,261 BISHAN STREET 22 SINGAPORE 570261,BISHAN STREET 22,1.358986893,103.8433244,BISHAN MRT STATION,Exit B,1037.1,0,,158.7,BISHAN-ANG MO KIO PARK (RIVER PLAINS),317.5,Thomson CC (Till 1Q 2022),248.6,Ang Mo Kio Ave 1 Blk 341 (Teck Ghee Court),787.5,14,6,3,3,26
https://www.propertyguru.com.sg/listing/hdb-for-sale-987c-buangkok-green-60211521,"S$ 630,000",Clementi,3,2,"1,001 sqft",,,HDB,60211521,987C Buangkok Green,533987,987C BUANGKOK GREEN BUANGKOK VALE SINGAPORE 533987,BUANGKOK GREEN,1.37932815,103.8777892,TONGKANG LRT STATION,Exit A,1419.2,0,,238.6,LUXUS HILLS PARK,201.8,Ci Yuan CC,732.3,Chomp Chomp Food Centre,2087.4,10,5,2,0,17
https://www.propertyguru.com.sg/listing/hdb-for-sale-426-tampines-street-41-60067738,"S$ 908,888",Clementi,4,2,"1,636 sqft",HIGH FLOOR,,HDB,60067738,426 Tampines Street 41,520426,426 TAMPINES STREET 41 SUN PLAZA VIEW SINGAPORE 520426,TAMPINES STREET 41,1.359574782,103.94793,TAMPINES MRT STATION,Exit D,703.2,2,,234.6,SUN PLAZA PK,142.1,Tampines North CC (U/C),285.5,Tampines Street 11 Blk 137 (Tampines Round Market and Food Centre),1612.7,28,3,1,0,32
https://www.propertyguru.com.sg/listing/hdb-for-sale-773-bedok-reservoir-view-60207240,"S$ 818,000",Bedok,3,2,"1,238 sqft",high floor,,HDB,60207240,773 Bedok Reservoir View,470773,773 BEDOK RESERVOIR VIEW LONGVALE SINGAPORE 470773,BEDOK RESERVOIR VIEW,1.336316022,103.9374579,BEDOK RESERVOIR MRT STATION,Exit B,442.7,2,,293.6,BEDOK RESERVOIR PK,407.2,Fengshan CC (U/C),627.2,Bedok North Street 4 Blk 85 (85 Fengshan Centre),498.5,13,3,3,2,21
https://www.propertyguru.com.sg/listing/hdb-for-sale-530c-pasir-ris-drive-1-500049567,"S$ 998,888",Clementi,3,2,"1,130 sqft",High Floor,,HDB,500049567,530C Pasir Ris Drive 1,513530,530C PASIR RIS DRIVE 1 LITTLE PRESCHOOL PTE. LTD SINGAPORE 513530,PASIR RIS DRIVE 1,1.371626182,103.9501139,PASIR RIS MRT STATION,Exit A,160.1,1,,101.3,PASIR RIS TOWN PK,92.7,Pasir Ris East CC,1065.3,Tampines Street 11 Blk 137 (Tampines Round Market and Food Centre),2966.4,10,6,0,0,16
https://www.propertyguru.com.sg/listing/hdb-for-sale-530c-pasir-ris-drive-1-500049567,"S$ 998,888",Clementi,3,2,"1,130 sqft",High Floor,,HDB,500049567,530C Pasir Ris Drive 1,513530,530C PASIR RIS DRIVE 1 LITTLE PRESCHOOL PTE. LTD SINGAPORE 513530,PASIR RIS DRIVE 1,1.371626182,103.9501139,PASIR RIS MRT STATION,Exit A,160.1,1,,101.3,PASIR RIS TOWN PK,92.7,Pasir Ris East CC,1065.3,Tampines Street 11 Blk 137 (Tampines Round Market and Food Centre),2966.4,10,6,0,0,16
https://www.propertyguru.com.sg/listing/hdb-for-sale-344-ang-mo-kio-avenue-3-60237241,"S$ 750,000",Ang Mo Kio,3,2,"1,054 sqft",,99-year leasehold,HDB,60237241,344 Ang Mo Kio Avenue 3,560344,344 ANG MO KIO AVENUE 3 TECK GHEE EVERGREEN SINGAPORE 560344,ANG MO KIO AVENUE 3,1.367977051,103.8492648,ANG MO KIO MRT STATION,Exit C,162.1,1,,104.2,ANG MO KIO TOWN GARDEN EAST,176.5,Cheng San CC (Pending U/C),421.9,Ang Mo Kio Ave 1 Blk 341 (Teck Ghee Court),442.8,42,4,3,5,54
https://www.propertyguru.com.sg/listing/hdb-for-sale-123-lorong-1-toa-payoh-60213194,"S$ 350,000",Clementi,3,1,722 sqft,,,HDB,60213194,123 Lorong 1 Toa Payoh,310123,123 LORONG 1 TOA PAYOH TOA PAYOH VIEW SINGAPORE 310123,LORONG 1 TOA PAYOH,1.338649018,103.8457038,BRADDELL MRT STATION,Exit B,244.5,3,,0,TOA PAYOH TOWN PK,824.2,Toa Payoh West CC,374,Toa Payoh Lorong 1 Blk 127 (Toa Payoh West Market and Food Court),123.8,32,1,2,5,40
https://www.propertyguru.com.sg/listing/hdb-for-sale-123-lorong-1-toa-payoh-60213194,"S$ 350,000",Clementi,3,1,722 sqft,,,HDB,60213194,123 Lorong 1 Toa Payoh,310123,123 LORONG 1 TOA PAYOH TOA PAYOH VIEW SINGAPORE 310123,LORONG 1 TOA PAYOH,1.338649018,103.8457038,BRADDELL MRT STATION,Exit B,244.5,3,,0,TOA PAYOH TOWN PK,824.2,Toa Payoh West CC,374,Toa Payoh Lorong 1 Blk 127 (Toa Payoh West Market and Food Court),123.8,32,1,2,5,40
https://www.propertyguru.com.sg/listing/hdb-for-sale-236-tampines-street-21-500052827,"S$ 590,000",Clementi,2,2,786 sqft,,,HDB,500052827,236 Tampines Street 21,520236,236 TAMPINES STREET 21 SINGAPORE 520236,TAMPINES STREET 21,1.355905169,103.9474475,TAMPINES MRT STATION,Exit B,370.6,2,,207.6,SUN PLAZA PK,372.9,Tampines North CC (U/C),186.8,Tampines Street 11 Blk 137 (Tampines Round Market and Food Centre),1206,33,3,3,0,39
https://www.propertyguru.com.sg/listing/hdb-for-sale-157-yung-loh-road-60199655,"S$ 650,000",Choa Chu Kang,4,2,"1,464 sqft",,,HDB,60199655,157 Yung Loh Road,610157,157 YUNG LOH ROAD SINGAPORE 610157,YUNG LOH ROAD,1.328616336,103.7216514,LAKESIDE MRT STATION,Exit A,1704.5,0,,200,JLG: LAKESIDE GARDEN,363,Taman Jurong CC,739.8,Taman Jurong Market and Food Centre,675.1,5,1,1,1,8
https://www.propertyguru.com.sg/listing/hdb-for-sale-451b-bukit-batok-west-avenue-6-500032269,"S$ 760,000",Bukit Batok,3,2,"1,001 sqft",high floor,,HDB,500032269,451B Bukit Batok West Avenue 6,652451,451B BUKIT BATOK WEST AVENUE 6 WEST TERRA @ BUKIT BATOK SINGAPORE 652451,BUKIT BATOK WEST AVENUE 6,1.352483814,103.7434147,BUKIT BATOK MRT STATION,Exit D,778.6,1,,84.8,BUKIT BATOK TOWN PARK,1143.8,Bukit Batok CC (Pending U/C),522,Jurong East Street 24 Blk 254 (Yuhua Village Market and Food Centre),1178.3,25,0,2,0,27
https://www.propertyguru.com.sg/listing/hdb-for-sale-451b-bukit-batok-west-avenue-6-500032269,"S$ 760,000",Bukit Batok,3,2,"1,001 sqft",high floor,,HDB,500032269,451B Bukit Batok West Avenue 6,652451,451B BUKIT BATOK WEST AVENUE 6 WEST TERRA @ BUKIT BATOK SINGAPORE 652451,BUKIT BATOK WEST AVENUE 6,1.352483814,103.7434147,BUKIT BATOK MRT STATION,Exit D,778.6,1,,84.8,BUKIT BATOK TOWN PARK,1143.8,Bukit Batok CC (Pending U/C),522,Jurong East Street 24 Blk 254 (Yuhua Village Market and Food Centre),1178.3,25,0,2,0,27
https://www.propertyguru.com.sg/listing/hdb-for-sale-357-woodlands-avenue-5-500026369,"S$ 930,000",Clementi,4,2,"1,571 sqft",High floor,,HDB,500026369,357 Woodlands Avenue 5,730357,357 WOODLANDS AVENUE 5 SINGAPORE 730357,WOODLANDS AVENUE 5,1.433145228,103.7844341,WOODLANDS MRT STATION,Exit 1,418.6,1,,271.1,WOODLANDS TOWN PK EAST,555.4,Woodgrove CC,164.8,Marsiling Lane Blk 20/21,1404.7,14,2,2,0,18
https://www.propertyguru.com.sg/listing/hdb-for-sale-367-woodlands-avenue-5-25365142,"S$ 778,000",Clementi,4,2,"1,292 sqft",High floor,,HDB,25365142,367 Woodlands Avenue 5,730367,367 WOODLANDS AVENUE 5 SINGAPORE 730367,WOODLANDS AVENUE 5,1.433504242,103.7864961,WOODLANDS MRT STATION,Exit 7,197.9,1,,137.3,WOODLANDS TOWN PK EAST,716.6,Woodgrove CC,253.4,Marsiling Lane Blk 20/21,1522,11,2,3,0,16
https://www.propertyguru.com.sg/listing/hdb-for-sale-242-bishan-street-22-500085880,"S$ 880,000",Ang Mo Kio,3,2,"1,109 sqft",,,HDB,500085880,242 Bishan Street 22,570242,242 BISHAN STREET 22 SINGAPORE 570242,BISHAN STREET 22,1.361341729,103.8448747,ANG MO KIO MRT STATION,Exit C,1024.3,0,,268.3,BISHAN-ANG MO KIO PARK (RIVER PLAINS),6.9,Thomson CC (Till 1Q 2022),312.9,Ang Mo Kio Ave 1 Blk 341 (Teck Ghee Court),483.7,17,4,4,3,28
https://www.propertyguru.com.sg/listing/hdb-for-sale-242-bishan-street-22-500085880,"S$ 880,000",Ang Mo Kio,3,2,"1,109 sqft",,,HDB,500085880,242 Bishan Street 22,570242,242 BISHAN STREET 22 SINGAPORE 570242,BISHAN STREET 22,1.361341729,103.8448747,ANG MO KIO MRT STATION,Exit C,1024.3,0,,268.3,BISHAN-ANG MO KIO PARK (RIVER PLAINS),6.9,Thomson CC (Till 1Q 2022),312.9,Ang Mo Kio Ave 1 Blk 341 (Teck Ghee Court),483.7,17,4,4,3,28
https://www.propertyguru.com.sg/listing/hdb-for-sale-242-bishan-street-22-500085880,"S$ 880,000",Ang Mo Kio,3,2,"1,109 sqft",,,HDB,500085880,242 Bishan Street 22,570242,242 BISHAN STREET 22 SINGAPORE 570242,BISHAN STREET 22,1.361341729,103.8448747,ANG MO KIO MRT STATION,Exit C,1024.3,0,,268.3,BISHAN-ANG MO KIO PARK (RIVER PLAINS),6.9,Thomson CC (Till 1Q 2022),312.9,Ang Mo Kio Ave 1 Blk 341 (Teck Ghee Court),483.7,17,4,4,3,28
https://www.propertyguru.com.sg/listing/hdb-for-sale-242-bishan-street-22-500085880,"S$ 880,000",Ang Mo Kio,3,2,"1,109 sqft",,,HDB,500085880,242 Bishan Street 22,570242,242 BISHAN STREET 22 SINGAPORE 570242,BISHAN STREET 22,1.361341729,103.8448747,ANG MO KIO MRT STATION,Exit C,1024.3,0,,268.3,BISHAN-ANG MO KIO PARK (RIVER PLAINS),6.9,Thomson CC (Till 1Q 2022),312.9,Ang Mo Kio Ave 1 Blk 341 (Teck Ghee Court),483.7,17,4,4,3,28
https://www.propertyguru.com.sg/listing/hdb-for-sale-121d-canberra-street-500084853,"S$ 700,000",Clementi,3,2,"1,001 sqft",mid floor,,HDB,500084853,121D Canberra Street,754121,121D CANBERRA STREET EASTBANK @ CANBERRA SINGAPORE 754121,CANBERRA STREET,1.447037762,103.8339235,CANBERRA MRT STATION,Exit E,595.3,1,,262.3,PEBBLE GARDEN,620.9,Sembawang CC (Pending U/C),768.7,Yishun Ring Road Blk 104/105 (Chong Pang Market and Food Centre),1825.1,6,5,1,0,12
https://www.propertyguru.com.sg/listing/hdb-for-sale-121d-canberra-street-500084853,"S$ 700,000",Clementi,3,2,"1,001 sqft",mid floor,,HDB,500084853,121D Canberra Street,754121,121D CANBERRA STREET EASTBANK @ CANBERRA SINGAPORE 754121,CANBERRA STREET,1.447037762,103.8339235,CANBERRA MRT STATION,Exit E,595.3,1,,262.3,PEBBLE GARDEN,620.9,Sembawang CC (Pending U/C),768.7,Yishun Ring Road Blk 104/105 (Chong Pang Market and Food Centre),1825.1,6,5,1,0,12
https://www.propertyguru.com.sg/listing/hdb-for-sale-541-hougang-avenue-8-500022895,"S$ 620,000",Clementi,3,2,"1,119 sqft",,,HDB,500022895,541 Hougang Avenue 8,530541,541 HOUGANG AVENUE 8 SINGAPORE 530541,HOUGANG AVENUE 8,1.377461432,103.8912727,HOUGANG MRT STATION,Exit C,593.4,3,,39.2,PUNGGOL PK,592.1,Punggol CC,346.2,Hougang Street 21 Blk 209 (Kovan Hougang Market and Food Centre),2113.4,30,3,4,0,37
https://www.propertyguru.com.sg/listing/hdb-for-sale-549-hougang-street-51-500031865,"S$ 610,000",Clementi,3,2,"1,108 sqft",,,HDB,500031865,549 Hougang Street 51,530549,549 HOUGANG STREET 51 SINGAPORE 530549,HOUGANG STREET 51,1.37814104,103.8912578,BUANGKOK MRT STATION,Exit B,555.7,4,,36.1,PUNGGOL PK,611.8,Punggol CC,420.6,Hougang Street 21 Blk 209 (Kovan Hougang Market and Food Centre),2185.3,29,3,4,0,36
https://www.propertyguru.com.sg/listing/hdb-for-sale-200b-sengkang-east-road-500033929,"S$ 690,000",Clementi,3,2,"1,184 sqft",,,HDB,500033929,200B Sengkang East Road,542200,200B SENGKANG EAST ROAD COMPASSVALE SOUTH GATE SINGAPORE 542200,SENGKANG EAST ROAD,1.387065378,103.8927356,RENJONG LRT STATION,Exit B,257.2,5,,98,PUNGGOL PK,1042.5,Buangkok CC (U/C),406,Hougang Street 21 Blk 209 (Kovan Hougang Market and Food Centre),3182.1,18,0,2,0,20
https://www.propertyguru.com.sg/listing/hdb-for-sale-425-tampines-street-41-500049891,"S$ 750,000",Clementi,3,2,"1,313 sqft",High Floor,,HDB,500049891,425 Tampines Street 41,520425,425 TAMPINES STREET 41 SUN PLAZA VIEW SINGAPORE 520425,TAMPINES STREET 41,1.359059944,103.9481822,TAMPINES MRT STATION,Exit D,682.5,2,,211.3,SUN PLAZA PK,191.2,Tampines North CC (U/C),257,Tampines Street 11 Blk 137 (Tampines Round Market and Food Centre),1564.2,31,3,2,0,36
https://www.propertyguru.com.sg/listing/hdb-for-sale-318c-anchorvale-link-60223979,"S$ 658,888",Clementi,3,2,"1,184 sqft",HIGH FLOOR,,HDB,60223979,318C Anchorvale Link,543318,318C ANCHORVALE LINK SINGAPORE 543318,ANCHORVALE LINK,1.393333571,103.8890002,FARMWAY LRT STATION,Exit B,420.4,6,,55.5,SENGKANG RIVERSIDE PK,502.6,Anchorvale CC,493.5,Hougang Street 21 Blk 209 (Kovan Hougang Market and Food Centre),3801.3,17,1,2,0,20
https://www.propertyguru.com.sg/listing/hdb-for-sale-172-bishan-street-13-60238981,"S$ 920,000",Ang Mo Kio,3,2,"1,302 sqft",,,HDB,60238981,172 Bishan Street 13,570172,172 BISHAN STREET 13 SINGAPORE 570172,BISHAN STREET 13,1.347483176,103.8535437,BISHAN MRT STATION,Exit D,542.4,1,,236,KALLANG LINEAR PARK,330.6,Bishan CC,405.4,Toa Payoh Lorong 8 Blk 210,804.2,14,4,1,1,20
https://www.propertyguru.com.sg/listing/hdb-for-sale-172-bishan-street-13-60238981,"S$ 920,000",Ang Mo Kio,3,2,"1,302 sqft",,,HDB,60238981,172 Bishan Street 13,570172,172 BISHAN STREET 13 SINGAPORE 570172,BISHAN STREET 13,1.347483176,103.8535437,BISHAN MRT STATION,Exit D,542.4,1,,236,KALLANG LINEAR PARK,330.6,Bishan CC,405.4,Toa Payoh Lorong 8 Blk 210,804.2,14,4,1,1,20
https://www.propertyguru.com.sg/listing/hdb-for-sale-103b-bidadari-park-drive-500082553,"S$ 798,888",Clementi,2,2,732 sqft,High Floor,,HDB,500082553,103B Bidadari Park Drive,342103,103B BIDADARI PARK DRIVE ALKAFF COURTVIEW SINGAPORE 342103,BIDADARI PARK DRIVE,1.335089454,103.8713373,POTONG PASIR MRT STATION,Exit A,365.6,2,,105.5,GREENWAY SOUTH,46.7,Bidadari CC (U/C),404.3,Geylang Bahru Blk 69 (Blk 69 Geylang Bahru Market and Food Centre),1514,11,8,2,0,21
https://www.propertyguru.com.sg/listing/hdb-for-sale-126-pasir-ris-street-11-500072831,"S$ 699,999",Clementi,4,2,"1,420 sqft",High floor,,HDB,500072831,126 Pasir Ris Street 11,510126,126 PASIR RIS STREET 11 SINGAPORE 510126,PASIR RIS STREET 11,1.365487831,103.9552734,TAMPINES EAST MRT STATION,Exit D,943.1,1,,275.5,TAMPINES ECO GREEN PK,264.2,Pasir Ris East CC,555.2,Tampines Street 11 Blk 137 (Tampines Round Market and Food Centre),2519.9,21,2,1,0,24
https://www.propertyguru.com.sg/listing/hdb-for-sale-512a-yishun-street-51-60181760,"S$ 590,000",Clementi,2,2,"1,001 sqft",,,HDB,60181760,512A Yishun Street 51,761512,512A YISHUN STREET 51 OLEANDER BREEZE @ YISHUN SINGAPORE 761512,YISHUN STREET 51,1.414277157,103.8411206,KHATIB MRT STATION,Exit A,962.8,1,,174.8,LOWER SELETAR RESERVOIR PARK,774.1,Nee Soon South CC (U/C),722.1,Yishun Ring Road Blk 104/105 (Chong Pang Market and Food Centre),2359.2,20,2,1,0,23
https://www.propertyguru.com.sg/listing/hdb-for-sale-476-jurong-west-street-41-60164488,"S$ 418,000",Clementi,3,2,785 sqft,,,HDB,60164488,476 Jurong West Street 41,640476,476 JURONG WEST STREET 41 JURONGVILLE @ STREET 41 SINGAPORE 640476,JURONG WEST STREET 41,1.347715743,103.7241842,LAKESIDE MRT STATION,Exit C,466.9,1,,69.7,JLG: LAKESIDE GARDEN,317.7,Jurong Green CC,339.5,Jurong West Street 52 Blk 505,674,23,2,3,2,30
https://www.propertyguru.com.sg/listing/hdb-for-sale-476-jurong-west-street-41-60164488,"S$ 418,000",Clementi,3,2,785 sqft,,,HDB,60164488,476 Jurong West Street 41,640476,476 JURONG WEST STREET 41 JURONGVILLE @ STREET 41 SINGAPORE 640476,JURONG WEST STREET 41,1.347715743,103.7241842,LAKESIDE MRT STATION,Exit C,466.9,1,,69.7,JLG: LAKESIDE GARDEN,317.7,Jurong Green CC,339.5,Jurong West Street 52 Blk 505,674,23,2,3,2,30
https://www.propertyguru.com.sg/listing/hdb-for-sale-165b-yung-kuang-court-500082685,"S$ 750,000",Clementi,3,2,"1,216 sqft",,,HDB,500082685,165B Yung Kuang Court,612165,165B YUNG KUANG ROAD YUNG KUANG COURT SINGAPORE 612165,YUNG KUANG ROAD,1.330644723,103.7223219,LAKESIDE MRT STATION,Exit A,1489.6,0,,191.7,JLG: LAKESIDE GARDEN,296.1,Taman Jurong CC,521.3,Taman Jurong Market and Food Centre,458.2,6,3,1,1,11
https://www.propertyguru.com.sg/listing/hdb-for-sale-165b-yung-kuang-court-500082685,"S$ 750,000",Clementi,3,2,"1,216 sqft",,,HDB,500082685,165B Yung Kuang Court,612165,165B YUNG KUANG ROAD YUNG KUANG COURT SINGAPORE 612165,YUNG KUANG ROAD,1.330644723,103.7223219,LAKESIDE MRT STATION,Exit A,1489.6,0,,191.7,JLG: LAKESIDE GARDEN,296.1,Taman Jurong CC,521.3,Taman Jurong Market and Food Centre,458.2,6,3,1,1,11
https://www.propertyguru.com.sg/listing/hdb-for-sale-401-sin-ming-avenue-500026382,"S$ 1,150,000",Ang Mo Kio,4,3,"1,668 sqft",,,HDB,500026382,401 Sin Ming Avenue,570401,401 SIN MING AVENUE SIN MING GARDEN SINGAPORE 570401,SIN MING AVENUE,1.362505496,103.8331853,BRIGHT HILL MRT STATION,Exit 2,93.3,3,,61.6,FULTON AVE PG,31.9,Marymount CC,902.4,Ang Mo Kio Ave 1 Blk 226D (Kebun Baru Market and Food Centre),816.4,4,14,2,2,22
https://www.propertyguru.com.sg/listing/hdb-for-sale-335-serangoon-avenue-3-60195733,"S$ 670,000",Clementi,3,2,904 sqft,,,HDB,60195733,335 Serangoon Avenue 3,550335,335 SERANGOON AVENUE 3 SINGAPORE 550335,SERANGOON AVENUE 3,1.349442214,103.8710678,SERANGOON MRT STATION,Exit F,171.9,2,,200.6,JLN RIANG PG,460.1,Braddell Heights CC (Pending U/C),252.3,Serangoon Garden Market,1584.1,13,11,1,0,25
https://www.propertyguru.com.sg/listing/hdb-for-sale-335-serangoon-avenue-3-60195733,"S$ 670,000",Clementi,3,2,904 sqft,,,HDB,60195733,335 Serangoon Avenue 3,550335,335 SERANGOON AVENUE 3 SINGAPORE 550335,SERANGOON AVENUE 3,1.349442214,103.8710678,SERANGOON MRT STATION,Exit F,171.9,2,,200.6,JLN RIANG PG,460.1,Braddell Heights CC (Pending U/C),252.3,Serangoon Garden Market,1584.1,13,11,1,0,25
https://www.propertyguru.com.sg/listing/hdb-for-sale-627-bedok-reservoir-road-60143639,"S$ 508,000",Bedok,3,2,980 sqft,,,HDB,60143639,627 Bedok Reservoir Road,470627,627 BEDOK RESERVOIR ROAD EUNOS HEIGHTS SINGAPORE 470627,BEDOK RESERVOIR ROAD,1.333961867,103.9155993,BEDOK NORTH MRT STATION,Exit C,251.3,2,,132.8,BEDOK TOWN PK,354.9,Eunos CC (Pending U/C),163.9,Bedok Reservoir Road Blk 630,204.6,21,7,1,1,30
https://www.propertyguru.com.sg/listing/hdb-for-sale-627-bedok-reservoir-road-60143639,"S$ 508,000",Bedok,3,2,980 sqft,,,HDB,60143639,627 Bedok Reservoir Road,470627,627 BEDOK RESERVOIR ROAD EUNOS HEIGHTS SINGAPORE 470627,BEDOK RESERVOIR ROAD,1.333961867,103.9155993,BEDOK NORTH MRT STATION,Exit C,251.3,2,,132.8,BEDOK TOWN PK,354.9,Eunos CC (Pending U/C),163.9,Bedok Reservoir Road Blk 630,204.6,21,7,1,1,30
https://www.propertyguru.com.sg/listing/hdb-for-sale-627-bedok-reservoir-road-60143639,"S$ 508,000",Bedok,3,2,980 sqft,,,HDB,60143639,627 Bedok Reservoir Road,470627,627 BEDOK RESERVOIR ROAD EUNOS HEIGHTS SINGAPORE 470627,BEDOK RESERVOIR ROAD,1.333961867,103.9155993,BEDOK NORTH MRT STATION,Exit C,251.3,2,,132.8,BEDOK TOWN PK,354.9,Eunos CC (Pending U/C),163.9,Bedok Reservoir Road Blk 630,204.6,21,7,1,1,30
https://www.propertyguru.com.sg/listing/hdb-for-sale-92b-telok-blangah-street-31-60117936,"S$ 898,000",Bukit Merah,3,2,"1,001 sqft",mid floor,,HDB,60117936,92B Telok Blangah Street 31,102092,92B TELOK BLANGAH STREET 31 TELOK BLANGAH PARCVIEW SINGAPORE 102092,TELOK BLANGAH STREET 31,1.27587917,103.8073298,TELOK BLANGAH MRT STATION,Exit A,637.2,2,,272.4,TELOK BLANGAH HILL PARK,232.8,Telok Blangah CC,127.8,Telok Blangah Drive Blk 82 (Telok Blangah Market),228.9,13,7,1,2,23
https://www.propertyguru.com.sg/listing/hdb-for-sale-805-yishun-ring-road-500053070,"S$ 720,000",Clementi,3,2,"1,313 sqft",High Floor,,HDB,500053070,805 Yishun Ring Road,760805,805 YISHUN RING ROAD KHATIB GARDENS SINGAPORE 760805,YISHUN RING ROAD,1.417427227,103.8315889,KHATIB MRT STATION,Exit B,128.3,1,,102.7,LOWER SELETAR RESERVOIR PARK,717.7,Nee Soon South CC (U/C),425.9,Yishun Ring Road Blk 104/105 (Chong Pang Market and Food Centre),1587.1,16,1,1,0,18
https://www.propertyguru.com.sg/listing/hdb-for-sale-305a-punggol-road-500035762,"S$ 569,000",Clementi,3,2,721 sqft,Mid Floor,,HDB,500035762,305A Punggol Road,821305,305A PUNGGOL ROAD TREELODGE@PUNGGOL SINGAPORE 821305,PUNGGOL ROAD,1.405079118,103.906706,DAMAI LRT STATION,Exit B,212.4,9,,163.1,PUNGGOL WATERWAY PK,159.7,Punggol Vista CC,208.8,Hougang Street 21 Blk 209 (Kovan Hougang Market and Food Centre),5581.1,18,2,2,0,22
https://www.propertyguru.com.sg/listing/hdb-for-sale-876a-tampines-avenue-8-500075940,"S$ 1,000,000",Clementi,3,2,"1,216 sqft",,,HDB,500075940,876A Tampines Avenue 8,521876,876A TAMPINES AVENUE 8 TAMPINES GREENBLOOM SINGAPORE 521876,TAMPINES AVENUE 8,1.352680357,103.9299319,TAMPINES WEST MRT STATION,Exit A,1205.7,0,,168.9,BEDOK RESERVOIR PK,724.7,Tampines West CC,769,Tampines Street 11 Blk 137 (Tampines Round Market and Food Centre),1824.3,14,1,1,0,16
https://www.propertyguru.com.sg/listing/hdb-for-sale-658-yishun-avenue-4-60176140,"S$ 730,000",Clementi,4,2,"1,291 sqft",,,HDB,60176140,658 Yishun Avenue 4,760658,658 YISHUN AVENUE 4 NEE SOON CENTRAL VIEW SINGAPORE 760658,YISHUN AVENUE 4,1.421896322,103.8394874,KHATIB MRT STATION,Exit D,826.5,2,,119.4,YISHUN PK,192.7,Nee Soon Central CC,776.9,Yishun Ring Road Blk 104/105 (Chong Pang Market and Food Centre),1612.5,32,2,3,0,37
https://www.propertyguru.com.sg/listing/hdb-for-sale-664a-jurong-west-street-64-500073563,"S$ 630,000",Clementi,3,2,979 sqft,high floor,,HDB,500073563,664A Jurong West Street 64,641664,664A JURONG WEST STREET 64 SINGAPORE 641664,JURONG WEST STREET 64,1.339206416,103.7033975,BOON LAY MRT STATION,Exit E,230.7,2,,289.3,JURONG CENTRAL PARK,424,The Frontier CC,182.5,Boon Lay Place Blk 221A/B (Boon Lay Place Market and Food Village),1240.1,17,1,1,0,19
https://www.propertyguru.com.sg/listing/hdb-for-sale-903-jurong-west-street-91-500035483,"S$ 588,000",Clementi,4,2,"1,313 sqft",,,HDB,500035483,903 Jurong West Street 91,640903,903 JURONG WEST STREET 91 SINGAPORE 640903,JURONG WEST STREET 91,1.33971748,103.6860611,PIONEER MRT STATION,Exit B,1249.3,0,,554.1,YUNNAN PARK,765.6,Nanyang CC,755.6,Boon Lay Place Blk 221A/B (Boon Lay Place Market and Food Village),3037.5,7,1,1,0,9
